stop_id,stop_code,stop_name,stop_desc,stop_lat,stop_lon,zone_id,stop_url,location_type,parent_station,stop_timezone,wheelchair_boarding
ABR_1,,Nucli urbà - Estació FGC,,41.5226059,1.9064831,,,0,,,0
ABR_10,,Nucli urbà - Mercat Municipal,,41.5171585,1.8994960,,,0,,,0
ABR_11,,Nucli urbà - Zona esportiva,,41.5202713,1.9039119,,,0,,,0
ABR_12,,Sant Miquel,,41.5298309,1.9154100,,,0,,,0
ABR_13,,Can Vilalba - Av. de Circumvalació,,41.5219917,1.9216920,,,0,,,0
ABR_14,,Can Vilalba - Av. de Virei Amat / C. de Sant Joaquim,,41.5192566,1.9231631,,,0,,,0
ABR_15,,Can Vilalba - Pl. de Virrei Amat,,41.5216255,1.9263750,,,0,,,0
ABR_15.1,,Can Vilalba - C. de Madrid,Parada sota demanda amb l'APP TAD CAT,41.5275002,1.9267970,,,0,,,0
ABR_16,,Can Vilalba - Camí de Castell de Voltrera / C. de Castellbisbal,,41.5231857,1.9291110,,,0,,,0
ABR_17,,Santa Maria de Vilalba,,41.5100822,1.9320440,,,0,,,0
ABR_18,,Santa Maria de Vilalba - Camí del Suro,,41.5062790,1.9302109,,,0,,,0
ABR_18.1,,Can Torres - C. de Pintor Ribera,Parada sota demanda amb l'APP TAD CAT,41.5055351,1.9234990,,,0,,,0
ABR_18.2,,Can Torres - C. de Pintor Ribera (nº 26),Parada sota demanda amb l'APP TAD CAT,41.5057030,1.9267440,,,0,,,0
ABR_19,,Les Carpes - C. del Pi,,41.5040321,1.9301240,,,0,,,0
ABR_2,,Nucli urbà - Av. de la Generalitat,,41.5185661,1.9003590,,,0,,,0
ABR_20,,Les Carpes - C. de l'Empordà (Casal Social),,41.5019798,1.9289989,,,0,,,0
ABR_21,,Les Carpes - C. de Gardènia / C. de Camèlia,,41.4990768,1.9280040,,,0,,,0
ABR_22,,Les Carpes - C. de Goya,,41.4960327,1.9264990,,,0,,,0
ABR_3,,Nucli urbà - Pl. del Rebato,,41.5209541,1.8958859,,,0,,,0
ABR_4,,Abrera Centre Comercial,,41.5066261,1.9022239,,,0,,,0
ABR_5,,Centre Logístic Mercadona,,41.5120621,1.8873630,,,0,,,0
ABR_6,,Ca n'Amat - Rda. de Sant Jordi,,41.5133286,1.8822620,,,0,,,0
ABR_7,,Ca n'Amat - C. d'Aneto,,41.5104065,1.8779910,,,0,,,0
ABR_8,,Ca n'Amat - C. d'Abrera,,41.5084610,1.8804880,,,0,,,0
ABR_9,,Ca n'Amat - Av. de Ca n'Amat / Seat,,41.5058327,1.9014090,,,0,,,0
ALS_0000052300000001,,Aldover,,40.8806229,0.4989190,,,0,,Europe/Madrid,0
ALS_0000059500000001,,Barcelona (Nord),,41.3940659,2.1829441,,,0,ALS_E0000059500000001,,0
ALS_0000149500000001,,Manresa,,41.7317314,1.8325952,,,0,ALS_E0000149500000001,,0
ALS_0000196300000001,,Ardevol,,41.8507195,1.5194606,,,0,,Europe/Madrid,0
ALS_0000207800000001,,Els Arenys,,42.3651695,1.6492018,,,0,,Europe/Madrid,0
ALS_0000210000000001,,Martorell,,41.4948540,1.9115459,,,0,,Europe/Madrid,0
ALS_0000210100000001,,Les Borges Blanques,,41.5183296,0.8701298,,,0,ALS_E0000210100000001,,0
ALS_0000219300000001,,Boi,,42.5227814,0.8342420,,,0,,Europe/Madrid,0
ALS_0000219400000001,,Bordes Es,,42.7387543,0.7233816,,,0,,Europe/Madrid,0
ALS_0000219600000001,,Castellar N Hug,,42.2818298,2.0165381,,,0,,Europe/Madrid,0
ALS_0000219700000001,,Castellar De La Ribera,,42.0223846,1.4183198,,,0,,Europe/Madrid,0
ALS_0000259600000001,,Club Tenis Manresa,,41.7503433,1.8410578,,,0,,Europe/Madrid,0
ALS_0000259800000001,,Flix (Emb.),,41.8004303,0.9156415,,,0,,Europe/Madrid,0
ALS_0000269300000001,,Foradada (Emb),,41.8707924,1.0157316,,,0,,Europe/Madrid,0
ALS_0000269400000001,,Freixenet,,41.9220467,1.5690174,,,0,,Europe/Madrid,0
ALS_0000269500000001,,Gos. El (Emb.),,41.8856850,1.1332309,,,0,,Europe/Madrid,0
ALS_0000269900000001,,Hostalets Cervera,,41.6326065,1.3388729,,,0,,Europe/Madrid,0
ALS_0000278500000001,,Hostalets Lloses,,42.1524162,2.0588615,,,0,,Europe/Madrid,0
ALS_0000278600000001,,Hostalets Tost,,42.2779579,1.3618944,,,0,,Europe/Madrid,0
ALS_0000293900000002,,Les Bordes (Camping),,42.4484634,0.7100689,,,0,,Europe/Madrid,0
ALS_0000299200000001,,Masaners,,42.2331924,1.7758048,,,0,,Europe/Madrid,0
ALS_0000299400000001,,La Rápita,,41.7816010,0.8413650,,,0,,Europe/Madrid,0
ALS_0000299400000002,,La Rápita,,41.7815132,0.8410940,,,0,,Europe/Madrid,0
ALS_0000299500000001,,Salás Pallars,,42.2130470,0.9324911,,,0,,Europe/Madrid,0
ALS_0000299900000001,,Valéncia D Aneu,,42.6341209,1.1105899,,,0,,Europe/Madrid,0
ALS_0000325900000001,,Barri De Sant Antoni (Seu),,42.3610191,1.4738204,,,0,,Europe/Madrid,0
ALS_0000326000000001,,Barri De Sant Pere (Seu),,42.3615723,1.4813950,,,0,,Europe/Madrid,0
ALS_0000326200000001,,Poble Sec (Seu),,42.3613358,1.4661601,,,0,,Europe/Madrid,0
ALS_0000330700000001,,Institut Seu,,42.3534126,1.4574156,,,0,,Europe/Madrid,0
ALS_0000331800000001,,Cr Montferrer,,42.3452797,1.4267687,,,0,,Europe/Madrid,0
ALS_0000386100000101,,Juneda,,41.5466003,0.8220558,,,0,ALS_E0000386100000101,,0
ALS_0000386200000001,,La Floresta,,41.5095291,0.9192317,,,0,,Europe/Madrid,0
ALS_0000386300000001,,Els Omellons,,41.5009575,0.9599547,,,0,,Europe/Madrid,0
ALS_0000386400000001,,L Espluga Calba,,41.4953995,1.0041825,,,0,,Europe/Madrid,0
ALS_0000386500000001,,Fulleda,,41.4631042,1.0253280,,,0,,Europe/Madrid,0
ALS_0000386600000001,,Tarres,,41.4226341,1.0187998,,,0,,Europe/Madrid,0
ALS_0000386700000001,,Margalef,,41.5724983,0.7715318,,,0,,Europe/Madrid,0
ALS_0000386800000001,,Torregrosa,,41.5812263,0.8262275,,,0,,Europe/Madrid,0
ALS_0000386900000001,,Collet,,41.5328522,0.8862019,,,0,,Europe/Madrid,0
ALS_0000387000000001,,Arbeca,,41.5408821,0.9271752,,,0,,Europe/Madrid,0
ALS_0000387100000001,,Belianes,,41.5589066,1.0164443,,,0,,Europe/Madrid,0
ALS_0000387200000001,,Embrancament Malda,,41.5530319,1.0357616,,,0,,Europe/Madrid,0
ALS_0000387300000101,,Sant Marti Malda,,41.5603104,1.0552428,,,0,,Europe/Madrid,0
ALS_0000387400000001,,Rocafort De Vallbona,,41.5579605,1.0926999,,,0,,Europe/Madrid,0
ALS_0000387500000001,,Nalec,,41.5652771,1.1119610,,,0,,Europe/Madrid,0
ALS_0000387600000001,,Ciutadilla,,41.5682678,1.1257080,,,0,,Europe/Madrid,0
ALS_0000387700000001,,Malda,,41.5508385,1.0398617,,,0,,Europe/Madrid,0
ALS_0000387800000001,,Llorenc De Rocafort,,41.5351143,1.0687193,,,0,,Europe/Madrid,0
ALS_0000387900000001,,Vallbona,,41.5254936,1.0894947,,,0,,Europe/Madrid,0
ALS_0000388000000001,,Rocallaura,,41.5043678,1.1503594,,,0,,Europe/Madrid,0
ALS_0000388200000001,,Miralcamp,,41.6060600,0.8798976,,,0,,Europe/Madrid,0
ALS_0000388300000001,,Puiggros,,41.5510712,0.8890105,,,0,,Europe/Madrid,0
ALS_0000388400000001,,Cervia De Les Garrigues,,41.4256172,0.8611034,,,0,,Europe/Madrid,0
ALS_0000388500000001,,L Albi,,41.4235649,0.9385530,,,0,,Europe/Madrid,0
ALS_0000388600000001,,El Vilosell,,41.3832664,0.9475548,,,0,,Europe/Madrid,0
ALS_0000388700000001,,La Pobla De Cervoles,,41.3663254,0.9155934,,,0,,Europe/Madrid,0
ALS_0000439300000001,,Ronda Universitat - Barcelona,,41.3864098,2.1656904,,,0,,Europe/Madrid,0
ALS_0000439800000001,,Paseo De Gracia - Barcelona,,41.3908730,2.1666348,,,0,,Europe/Madrid,0
ALS_0000441500000001,,Palau Reial - Barcelona,,41.3859825,2.1176388,,,0,,Europe/Madrid,0
ALS_0000451600000001,,Castellnou De Bages,,41.8367195,1.8323402,,,0,,Europe/Madrid,0
ALS_0000454100000001,,Aeropuerto Barcelona- Prat T1,,41.2875977,2.0729699,,,0,,Europe/Madrid,0
ALS_0000455300000001,,Lleida Estacion De Renfe,,41.6197853,0.6330330,,,0,,Europe/Madrid,0
ALS_0000455300000002,,Lleida Estacion De Renfe,,41.6205826,0.6319340,,,0,,Europe/Madrid,0
ALS_0000455400000001,,Fondarella,,41.6296539,0.8803439,,,0,,Europe/Madrid,0
ALS_0000465700000001,,L Ametlla De Casseres,,42.0465355,1.8746412,,,0,,Europe/Madrid,0
ALS_0000688600000001,,Manresa Plaza Valldaura,,41.7243004,1.8215898,,,0,,Europe/Madrid,0
ALS_0000688700000001,,Manresa Plz España,,41.7303696,1.8255868,,,0,,Europe/Madrid,0
ALS_0000709000000002,,Cambrils,,41.0691071,1.0557206,,,0,ALS_E0000709000000002,,0
ALS_0000709900000001,,Tortosa,,40.8060608,0.5217325,,,0,ALS_E0000709900000001,,0
ALS_0000850100000001,,Abrera,,41.5208206,1.8963860,,,0,,Europe/Madrid,0
ALS_0000850200000001,,Adrall,,42.3262672,1.4000275,,,0,,Europe/Madrid,0
ALS_0000850300000001,,Ager,,42.0031586,0.7638771,,,0,,Europe/Madrid,0
ALS_0000850400000001,,Agramunt,,41.7845459,1.0949745,,,0,ALS_E0000850400000001,,0
ALS_0000850600000001,,Agullo,,42.0028381,0.7390692,,,0,,Europe/Madrid,0
ALS_0000850700000001,,Alas,,42.3574829,1.5040194,,,0,,Europe/Madrid,0
ALS_0000851200000001,,Alcoletge,,41.6470261,0.6941905,,,0,,Europe/Madrid,0
ALS_0000851200000002,,Alcoletge,,41.6525230,0.6902806,,,0,,Europe/Madrid,0
ALS_0000851600000001,,Algerri,,41.8140411,0.6379415,,,0,,Europe/Madrid,0
ALS_0000851800000001,,All,,42.3977127,1.8400918,,,0,,Europe/Madrid,0
ALS_0000851900000001,,Almatret,,41.3052635,0.4243790,,,0,,Europe/Madrid,0
ALS_0000852000000001,,Almenar,,41.7948990,0.5703961,,,0,,Europe/Madrid,0
ALS_0000852300000001,,Alp,,42.3739281,1.8836348,,,0,,Europe/Madrid,0
ALS_0000852800000001,,Anglesola,,41.6595840,1.0837892,,,0,,Europe/Madrid,0
ALS_0000852900000001,,Anserall,,42.3776894,1.4571692,,,0,,Europe/Madrid,0
ALS_0000852900000002,,Anserall,,42.3769646,1.4559029,,,0,,Europe/Madrid,0
ALS_0000853000000001,,Aren,,42.2587929,0.7210210,,,0,,Europe/Madrid,0
ALS_0000853000000002,,Aren,,42.2532043,0.7300737,,,0,,Europe/Madrid,0
ALS_0000853000000003,,Aren,,42.2539978,0.7322160,,,0,,Europe/Madrid,0
ALS_0000853200000001,,Arfa,,42.3376465,1.4152184,,,0,,Europe/Madrid,0
ALS_0000853500000001,,Artesa Segre,,41.8932266,1.0473915,,,0,,Europe/Madrid,0
ALS_0000853700000001,,Asco,,41.1845512,0.5660748,,,0,,Europe/Madrid,0
ALS_0000853800000001,,Aubert,,42.7297173,0.7799027,,,0,,Europe/Madrid,0
ALS_0000853800000002,,Aubert,,42.7310333,0.7766322,,,0,,Europe/Madrid,0
ALS_0000853900000001,,Avellanes. Les,,41.9075546,0.7626005,,,0,,Europe/Madrid,0
ALS_0000854100000001,,Baga,,42.2509384,1.8644465,,,0,,Europe/Madrid,0
ALS_0000854200000001,,Balaguer,,41.7878342,0.8076075,,,0,ALS_E0000854200000001,,0
ALS_0000854400000001,,Balsareny,,41.8619232,1.8738556,,,0,,Europe/Madrid,0
ALS_0000854500000001,,Baltarga,,42.3629951,1.8081654,,,0,,Europe/Madrid,0
ALS_0000854500000002,,Baltarga,,42.3629265,1.8081259,,,0,,Europe/Madrid,0
ALS_0000854600000001,,Banys S. Vicenç,,42.3685608,1.5950222,,,0,,Europe/Madrid,0
ALS_0000854700000001,,Baro,,42.3595619,1.0797498,,,0,,Europe/Madrid,0
ALS_0000854900000001,,Barruera,,42.5043297,0.8009480,,,0,,Europe/Madrid,0
ALS_0000855000000001,,Basella,,42.0153275,1.2941593,,,0,,Europe/Madrid,0
ALS_0000855100000001,,Bellaguarda,,41.3369408,0.7387139,,,0,,Europe/Madrid,0
ALS_0000855200000001,,Bellaterra,,41.5002060,2.0968411,,,0,,Europe/Madrid,0
ALS_0000855300000001,,Bellcaire D'urgell,,41.7581177,0.9047462,,,0,,Europe/Madrid,0
ALS_0000855400000001,,Bell-Lloc Dur,,41.6294937,0.7815849,,,0,,Europe/Madrid,0
ALS_0000855500000001,,Bellmunt Durgell,,41.7727852,0.9539432,,,0,,Europe/Madrid,0
ALS_0000855600000001,,Bellpuig,,41.6321144,1.0114235,,,0,,Europe/Madrid,0
ALS_0000855700000001,,Bellver Cerdan,,42.3705063,1.7777683,,,0,,Europe/Madrid,0
ALS_0000855700000002,,Bellver Cerdan,,42.3703499,1.7790220,,,0,,Europe/Madrid,0
ALS_0000855700000003,,Bellver Cerdan,,42.3702316,1.7796092,,,0,,Europe/Madrid,0
ALS_0000855800000001,,Bellver Dossó,,41.7454720,1.1719147,,,0,,Europe/Madrid,0
ALS_0000856100000001,,Benavent,,42.0732536,1.0959290,,,0,,Europe/Madrid,0
ALS_0000856200000001,,Benifallet,,40.9740067,0.5167317,,,0,,Europe/Madrid,0
ALS_0000856300000001,,Berga,,42.1010323,1.8439220,,,0,,Europe/Madrid,0
ALS_0000856700000001,,Biscarri,,42.0940247,1.0950845,,,0,,Europe/Madrid,0
ALS_0000856900000001,,Boldu,,41.7198372,1.0084316,,,0,,Europe/Madrid,0
ALS_0000857000000001,,Bolvir,,42.4171906,1.8800888,,,0,,Europe/Madrid,0
ALS_0000857100000001,,Bono,,42.5340462,0.7242427,,,0,,Europe/Madrid,0
ALS_0000857300000001,,Era Bordeta,,42.7499123,0.7006546,,,0,,Europe/Madrid,0
ALS_0000857400000001,,Borreda,,42.1326447,1.9934525,,,0,,Europe/Madrid,0
ALS_0000857500000001,,Bossost,,42.7852516,0.6927679,,,0,,Europe/Madrid,0
ALS_0000857600000001,,Bovera,,41.3268280,0.6388915,,,0,,Europe/Madrid,0
ALS_0000857800000001,,El Bruc,,41.5799294,1.7802383,,,0,,Europe/Madrid,0
ALS_0000857900000001,,Butsènit,,41.8010597,0.9923291,,,0,,Europe/Madrid,0
ALS_0000858000000001,,Cabrianes Enll,,41.8053131,1.8969824,,,0,,Europe/Madrid,0
ALS_0000858000000002,,Cabrianes Enll,,41.8050537,1.8983977,,,0,,Europe/Madrid,0
ALS_0000858400000001,,Callus,,41.7813835,1.7840233,,,0,,Europe/Madrid,0
ALS_0000858500000001,,Camarasa,,41.8741302,0.8755672,,,0,,Europe/Madrid,0
ALS_0000858700000001,,Canpons,,41.9458923,1.5985906,,,0,,Europe/Madrid,0
ALS_0000858800000001,,Capolat,,42.0930939,1.7614230,,,0,,Europe/Madrid,0
ALS_0000858900000001,,Cardona,,41.9152412,1.6834320,,,0,,Europe/Madrid,0
ALS_0000859000000001,,Casserres,,42.0133324,1.8415402,,,0,,Europe/Madrid,0
ALS_0000859400000001,,Castellciutat,,42.3562279,1.4429857,,,0,,Europe/Madrid,0
ALS_0000859600000002,,Sant Simeó De Castellnou,,41.9996109,1.2954519,,,0,,Europe/Madrid,0
ALS_0000859700000001,,Castellnou D'ossó,,41.7683830,1.1402559,,,0,,Europe/Madrid,0
ALS_0000859800000001,,Castello De Tor,,42.4346161,0.7428541,,,0,,Europe/Madrid,0
ALS_0000859900000001,,Castello Farfanya,,41.8175812,0.7282133,,,0,,Europe/Madrid,0
ALS_0000860000000001,,Castellolí,,41.5991173,1.7003164,,,0,,Europe/Madrid,0
ALS_0000860100000001,,Alfarras,,41.8292351,0.5689569,,,0,,Europe/Madrid,0
ALS_0000860100000003,,Alfarras,,41.8298073,0.5744641,,,0,,Europe/Madrid,0
ALS_0000860100000004,,Alfarras,,41.8297615,0.5742579,,,0,,Europe/Madrid,0
ALS_0000860100000006,,Alfarras,,41.8293762,0.5688182,,,0,,Europe/Madrid,0
ALS_0000860300000001,,Castellserà,,41.7470589,0.9859911,,,0,,Europe/Madrid,0
ALS_0000860700000001,,Sant Jordi De Cercs,,42.1519241,1.8569379,,,0,,Europe/Madrid,0
ALS_0000860800000001,,Cervera,,41.6736641,1.2738135,,,0,ALS_E0000860800000001,,0
ALS_0000861100000001,,Claravalls,,41.7021828,1.1246045,,,0,,Europe/Madrid,0
ALS_0000861200000001,,Clariana Cardener,,41.9337006,1.6239274,,,0,,Europe/Madrid,0
ALS_0000861400000001,,Colonia Palá,,41.8548698,1.7200737,,,0,,Europe/Madrid,0
ALS_0000861500000001,,La Colonia Valls,,41.8476028,1.7220790,,,0,,Europe/Madrid,0
ALS_0000861600000001,,Col. La Salle,,41.7421417,1.8381770,,,0,,Europe/Madrid,0
ALS_0000861700000001,,Cal Rosal,,42.0709686,1.8702185,,,0,,Europe/Madrid,0
ALS_0000861800000002,,Coll De Nargo,,42.1732674,1.3165687,,,0,,Europe/Madrid,0
ALS_0000861900000001,,Collbató,,41.5627174,1.8266559,,,0,,Europe/Madrid,0
ALS_0000862000000001,,La Coma (Lleida),,42.1762428,1.5908437,,,0,,Europe/Madrid,0
ALS_0000862200000001,,Comiols,,42.0551071,1.0897950,,,0,,Europe/Madrid,0
ALS_0000862300000001,,Concabella,,41.7519836,1.2343419,,,0,,Europe/Madrid,0
ALS_0000862400000001,,Conques,,42.1188927,1.0131023,,,0,,Europe/Madrid,0
ALS_0000862600000001,,La Coromina,,41.9095001,1.6970661,,,0,,Europe/Madrid,0
ALS_0000862700000001,,Corral Bergued,,41.6304092,1.3525734,,,0,,Europe/Madrid,0
ALS_0000862800000001,,Cruilla Montclar,,42.0309982,1.7901706,,,0,,Europe/Madrid,0
ALS_0000863000000001,,Cubells,,41.8531265,0.9575162,,,0,,Europe/Madrid,0
ALS_0000863900000001,,Erill-La-Vall,,42.5249290,0.8287061,,,0,,Europe/Madrid,0
ALS_0000864000000001,,Escalo,,42.5496902,1.1562845,,,0,,Europe/Madrid,0
ALS_0000864200000001,,Esparreguera,,41.5325775,1.8743076,,,0,,Europe/Madrid,0
ALS_0000864600000001,,Esterri Dàneu,,42.6228943,1.1236212,,,0,,Europe/Madrid,0
ALS_0000864700000001,,Farga De Moles,,42.4303436,1.4668430,,,0,,Europe/Madrid,0
ALS_0000864700000002,,Farga De Moles,,42.4315872,1.4663422,,,0,,Europe/Madrid,0
ALS_0000864800000001,,Figuerola D'orcau,,42.1309471,0.9961719,,,0,,Europe/Madrid,0
ALS_0000864900000001,,Flix,,41.2320824,0.5490454,,,0,,Europe/Madrid,0
ALS_0000865000000001,,Folquer,,42.0149078,1.1140178,,,0,,Europe/Madrid,0
ALS_0000865300000001,,Fontdepou,,41.9658203,0.7574800,,,0,,Europe/Madrid,0
ALS_0000865400000001,,Fonts Llobregat,,42.2782326,2.0048699,,,0,,Europe/Madrid,0
ALS_0000865600000001,,Forcat,,42.5088615,0.7185532,,,0,,Europe/Madrid,0
ALS_0000865700000001,,La Fuliola,,41.7138481,1.0194964,,,0,,Europe/Madrid,0
ALS_0000866100000001,,Ger,,42.4100723,1.8457463,,,0,,Europe/Madrid,0
ALS_0000866200000002,,Gerri De La Sal,,42.3241005,1.0652672,,,0,,Europe/Madrid,0
ALS_0000866300000001,,Ginestar,,41.0422516,0.6342139,,,0,,Europe/Madrid,0
ALS_0000866400000001,,Gironella,,42.0350189,1.8801427,,,0,,Europe/Madrid,0
ALS_0000866500000001,,Golmes,,41.6321335,0.9321107,,,0,,Europe/Madrid,0
ALS_0000866700000001,,Gosol,,42.2370148,1.6603652,,,0,,Europe/Madrid,0
ALS_0000866800000001,,La Granadella,,41.3556786,0.6649198,,,0,,Europe/Madrid,0
ALS_0000867000000001,,Guardiola De Berguedà,,42.2308655,1.8778818,,,0,,Europe/Madrid,0
ALS_0000867100000001,,La Guingueta,,42.5941505,1.1318014,,,0,,Europe/Madrid,0
ALS_0000867200000001,,Guixers,,42.1284294,1.6647828,,,0,,Europe/Madrid,0
ALS_0000867300000001,,Hostafrancs,,41.7372780,1.2449524,,,0,,Europe/Madrid,0
ALS_0000867400000001,,Hostal Les Forques,,42.0113907,1.4886045,,,0,,Europe/Madrid,0
ALS_0000867500000001,,Hostal Nou,,41.7886162,0.8216988,,,0,,Europe/Madrid,0
ALS_0000867900000001,,Lhostalnou,,42.2230148,1.3336028,,,0,,Europe/Madrid,0
ALS_0000868100000001,,Igualada,,41.5775261,1.6312767,,,0,ALS_E0000868100000001,,0
ALS_0000868200000001,,Isona,,42.1164589,1.0438511,,,0,,Europe/Madrid,0
ALS_0000868300000001,,Isovol,,42.3777809,1.8186448,,,0,,Europe/Madrid,0
ALS_0000868400000001,,Jorba,,41.6011009,1.5472949,,,0,,Europe/Madrid,0
ALS_0000868500000001,,Les,,42.8097229,0.7094604,,,0,,Europe/Madrid,0
ALS_0000868600000001,,Les Lloses,,42.1507721,2.1214449,,,0,,Europe/Madrid,0
ALS_0000868700000001,,Lespa,,42.2186394,1.6961859,,,0,,Europe/Madrid,0
ALS_0000868800000001,,Lespunyola,,42.0522118,1.7732780,,,0,,Europe/Madrid,0
ALS_0000868900000001,,Linyola,,41.7092438,0.9006948,,,0,,Europe/Madrid,0
ALS_0000869200000001,,Llardecans,,41.3713570,0.5524184,,,0,,Europe/Madrid,0
ALS_0000869400000001,,Llavorsi,,42.4959335,1.2115456,,,0,,Europe/Madrid,0
ALS_0000869500000001,,Llesp,,42.4542046,0.7571557,,,0,,Europe/Madrid,0
ALS_0000869600000001,,Llinars,,42.1145134,1.7089692,,,0,,Europe/Madrid,0
ALS_0000869800000001,,Llivia,,42.4629593,1.9796013,,,0,,Europe/Madrid,0
ALS_0000869900000001,,Mafet,,41.8068504,1.0788378,,,0,,Europe/Madrid,0
ALS_0000870000000001,,Maials,,41.3639183,0.5080159,,,0,,Europe/Madrid,0
ALS_0000870000000002,,Maials,,41.3651772,0.5086731,,,0,,Europe/Madrid,0
ALS_0000870100000001,,Mallol,,41.8887787,1.1452389,,,0,,Europe/Madrid,0
ALS_0000870200000001,,Marcovau,,41.8741951,1.0349463,,,0,,Europe/Madrid,0
ALS_0000870300000001,,Martinet,,42.3596382,1.6963899,,,0,,Europe/Madrid,0
ALS_0000870500000001,,Matamala,,42.1593323,2.0892906,,,0,,Europe/Madrid,0
ALS_0000870600000001,,Menarguens,,41.7291603,0.7426129,,,0,,Europe/Madrid,0
ALS_0000870600000002,,Menarguens,,41.7278976,0.7425178,,,0,,Europe/Madrid,0
ALS_0000870600000003,,Menarguens,,41.7301102,0.7453470,,,0,,Europe/Madrid,0
ALS_0000871000000001,,Mollerussa (Est.Autobuses),,41.6323318,0.8967219,,,0,ALS_E0000871000000001,,0
ALS_0000871100000001,,Monestir Davellanes,,41.8762550,0.7564905,,,0,,Europe/Madrid,0
ALS_0000871400000001,,Montardit,,42.3833084,1.1160938,,,0,,Europe/Madrid,0
ALS_0000871500000001,,Montargull,,41.9708023,1.0934882,,,0,,Europe/Madrid,0
ALS_0000871600000001,,Montclar De Urgel,,41.8469658,1.0579470,,,0,,Europe/Madrid,0
ALS_0000871600000002,,Montclar De Urgel,,41.8469582,1.0579981,,,0,,Europe/Madrid,0
ALS_0000871900000001,,Montgai,,41.7999115,0.9625599,,,0,,Europe/Madrid,0
ALS_0000872100000001,,Mont-Roig De Segarra,,41.7476234,1.1849357,,,0,,Europe/Madrid,0
ALS_0000872400000001,,Navas.,,41.9018364,1.8787264,,,0,ALS_E0000872400000001,,0
ALS_0000872700000001,,Ogern,,42.0233154,1.3394109,,,0,,Europe/Madrid,0
ALS_0000872900000001,,Oliana,,42.0663528,1.3137659,,,0,,Europe/Madrid,0
ALS_0000873100000001,,Organya,,42.2110481,1.3276074,,,0,,Europe/Madrid,0
ALS_0000873200000001,,Os De Balaguer,,41.8728867,0.7199748,,,0,,Europe/Madrid,0
ALS_0000873400000001,,Ossó De Sió,,41.7514000,1.1549809,,,0,,Europe/Madrid,0
ALS_0000873600000001,,Palanca Nov(E),,42.2898827,1.3676262,,,0,,Europe/Madrid,0
ALS_0000873800000001,,Les Pallargues,,41.7596588,1.1979252,,,0,,Europe/Madrid,0
ALS_0000874000000001,,Palmerola,,42.1510735,2.0368855,,,0,,Europe/Madrid,0
ALS_0000874100000001,,La Panadella,,41.6173592,1.3999467,,,0,,Europe/Madrid,0
ALS_0000874400000001,,Penelles,,41.7572937,0.9655977,,,0,,Europe/Madrid,0
ALS_0000874500000001,,Perves,,42.3623810,0.8504481,,,0,,Europe/Madrid,0
ALS_0000874600000001,,Pineda Del Bages,,41.7596321,1.8397807,,,0,,Europe/Madrid,0
ALS_0000874700000001,,Pla De Cubells,,41.8560143,0.9693792,,,0,,Europe/Madrid,0
ALS_0000874800000001,,El Pla De Sant Tirs,,42.3153839,1.3822819,,,0,,Europe/Madrid,0
ALS_0000875000000001,,Pobla De Segur (Estacion Bus),,42.2465782,0.9673333,,,0,ALS_E0000875000000001,,0
ALS_0000875100000001,,Pobla Lillet,,42.2448235,1.9758117,,,0,,Europe/Madrid,0
ALS_0000875400000001,,Pont Darseguel,,42.3616257,1.5871407,,,0,,Europe/Madrid,0
ALS_0000875500000001,,El Pont De Bar,,42.3715210,1.6017362,,,0,,Europe/Madrid,0
ALS_0000875700000001,,El Pont De Suert,,42.4078827,0.7424840,,,0,ALS_E0000875700000001,,0
ALS_0000876000000001,,Ponts,,41.9146919,1.1832139,,,0,,Europe/Madrid,0
ALS_0000876100000001,,Porquerisses,,41.6251793,1.4555918,,,0,,Europe/Madrid,0
ALS_0000876200000001,,Pradell,,41.7968483,1.0305907,,,0,,Europe/Madrid,0
ALS_0000876500000001,,Preixens,,41.7936020,1.0506001,,,0,,Europe/Madrid,0
ALS_0000876600000001,,Prullans,,42.3730354,1.7445625,,,0,,Europe/Madrid,0
ALS_0000876900000001,,Puigcerda - Plaça Estaciò,,42.4295731,1.9248992,,,0,,Europe/Madrid,0
ALS_0000877000000001,,Puigreig,,41.9754982,1.8795955,,,0,,Europe/Madrid,0
ALS_0000877100000001,,Puigverd Dagramunt,,41.7748795,1.1215494,,,0,,Europe/Madrid,0
ALS_0000877300000001,,Ceuró,,42.0231972,1.3694625,,,0,,Europe/Madrid,0
ALS_0000877500000001,,Rasquera,,41.0027123,0.6005360,,,0,,Europe/Madrid,0
ALS_0000877700000001,,Rialp,,42.4442711,1.1354517,,,0,,Europe/Madrid,0
ALS_0000878000000001,,Ripoll,,42.1970444,2.1950581,,,0,ALS_E0000878000000001,,0
ALS_0000878200000001,,S. Llorenc Morunys,,42.1360893,1.5918372,,,0,,Europe/Madrid,0
ALS_0000878300000001,,S. Pere Arquels,,41.6466522,1.3187025,,,0,,Europe/Madrid,0
ALS_0000878600000001,,Saldes,,42.2286072,1.7350938,,,0,,Europe/Madrid,0
ALS_0000878700000001,,Sallent,,41.8232613,1.8930818,,,0,,Europe/Madrid,0
ALS_0000878800000001,,Santjoan De Vilatorrada,,41.7428360,1.8050278,,,0,,Europe/Madrid,0
ALS_0000878800000002,,Santjoan De Vilatorrada,,41.7432442,1.8040131,,,0,,Europe/Madrid,0
ALS_0000879000000001,,Cercs,,42.1460953,1.8612689,,,0,,Europe/Madrid,0
ALS_0000879100000001,,Sant Marti,,41.7707291,1.7888367,,,0,,Europe/Madrid,0
ALS_0000879200000001,,Sant Mateu. Enll,,41.7901726,1.7797668,,,0,,Europe/Madrid,0
ALS_0000879300000001,,Santpedor,,41.7861099,1.8389493,,,0,,Europe/Madrid,0
ALS_0000879500000001,,Sarroca De Bellera (Embr.),,42.3636932,0.8691936,,,0,,Europe/Madrid,0
ALS_0000879600000001,,Sedó,,41.7314987,1.2602705,,,0,,Europe/Madrid,0
ALS_0000879900000001,,Senet,,42.5585976,0.7477678,,,0,,Europe/Madrid,0
ALS_0000880000000001,,Senterada,,42.3243027,0.9366061,,,0,,Europe/Madrid,0
ALS_0000880100000001,,La Sentiu Sio,,41.8150024,0.8816468,,,0,,Europe/Madrid,0
ALS_0000880100000002,,La Sentiu Sio,,41.8053017,0.8781655,,,0,,Europe/Madrid,0
ALS_0000880200000001,,Sero (Emb),,41.8813515,1.1123655,,,0,,Europe/Madrid,0
ALS_0000880400000001,,Seu D Urgell,,42.3596077,1.4599050,,,0,ALS_E0000880400000001,,0
ALS_0000880500000001,,Sidamon,,41.6284256,0.8313131,,,0,,Europe/Madrid,0
ALS_0000880700000001,,Solsona,,41.9963226,1.5158343,,,0,ALS_E0000880700000001,,0
ALS_0000881000000001,,Sort,,42.4119034,1.1317366,,,0,ALS_E0000881000000001,,0
ALS_0000881100000001,,Santa Maria Del Camíno,,41.6287689,1.4734848,,,0,,Europe/Madrid,0
ALS_0000881200000001,,Sta Maria Montmagastrell,,41.7188110,1.1225228,,,0,,Europe/Madrid,0
ALS_0000881300000001,,Su,,41.8897743,1.5649672,,,0,,Europe/Madrid,0
ALS_0000881600000001,,Suria,,41.8323326,1.7504388,,,0,ALS_E0000881600000001,,0
ALS_0000881700000001,,Suterranya,,42.1386185,0.9428072,,,0,,Europe/Madrid,0
ALS_0000881800000001,,Talarn,,42.1780701,0.8968050,,,0,,Europe/Madrid,0
ALS_0000881800000002,,Talarn,,42.1789627,0.8966171,,,0,,Europe/Madrid,0
ALS_0000881900000003,,Tarrega,,41.6505280,1.1379497,,,0,,Europe/Madrid,0
ALS_0000882000000001,,Tarroja Segarra,,41.7313728,1.2743366,,,0,,Europe/Madrid,0
ALS_0000882100000001,,El Tarros,,41.7077179,1.0317899,,,0,,Europe/Madrid,0
ALS_0000882200000001,,Taull,,42.5170937,0.8487367,,,0,,Europe/Madrid,0
ALS_0000882300000001,,Termens,,41.7172699,0.7649204,,,0,,Europe/Madrid,0
ALS_0000882500000002,,Tiurana (Embr),,41.9484711,1.2764738,,,0,,Europe/Madrid,0
ALS_0000882800000001,,Tornabous,,41.6986160,1.0522032,,,0,,Europe/Madrid,0
ALS_0000883000000001,,Torrebesses,,41.4255028,0.5915720,,,0,,Europe/Madrid,0
ALS_0000883100000001,,Torrefarrera,,41.6688728,0.6065320,,,0,,Europe/Madrid,0
ALS_0000883400000001,,Tremp,,42.1676254,0.8917057,,,0,ALS_E0000883400000001,,0
ALS_0000883500000001,,Tudela Segre (E),,41.8788605,1.0895778,,,0,,Europe/Madrid,0
ALS_0000883600000001,,Tunel Boca N Cadi,,42.3464432,1.8328696,,,0,,Europe/Madrid,0
ALS_0000883700000001,,Túnel Vielha (N),,42.6723938,0.7774866,,,0,,Europe/Madrid,0
ALS_0000883800000001,,Túnel Vielha (S),,42.6149712,0.7662119,,,0,,Europe/Madrid,0
ALS_0000884100000001,,Vallcebre,,42.2030716,1.8180014,,,0,,Europe/Madrid,0
ALS_0000884300000001,,Vallfogona De Balaguer,,41.7543106,0.8070930,,,0,,Europe/Madrid,0
ALS_0000884300000002,,Vallfogona De Balaguer,,41.7533379,0.8081129,,,0,,Europe/Madrid,0
ALS_0000884400000001,,Vall-Llebrera,,41.9340820,1.0834620,,,0,,Europe/Madrid,0
ALS_0000884800000001,,Les Ventoses,,41.7960663,1.0135480,,,0,,Europe/Madrid,0
ALS_0000884900000001,,Vergos,,41.6649933,1.3010216,,,0,,Europe/Madrid,0
ALS_0000885300000001,,Vielha,,42.7040176,0.7944679,,,0,,Europe/Madrid,0
ALS_0000885400000001,,Vilac,,42.7166252,0.7966486,,,0,,Europe/Madrid,0
ALS_0000885500000001,,Vilada,,42.1367683,1.9298170,,,0,,Europe/Madrid,0
ALS_0000885600000001,,Vilagrassa,,41.6472702,1.1081307,,,0,,Europe/Madrid,0
ALS_0000885700000001,,Vilaller,,42.4775658,0.7181006,,,0,,Europe/Madrid,0
ALS_0000885800000001,,Vilamajor,,41.9364128,0.7462844,,,0,,Europe/Madrid,0
ALS_0000885900000001,,Vilamitjana,,42.1461792,0.9181901,,,0,,Europe/Madrid,0
ALS_0000886000000001,,Vilanova Barca,,41.6891289,0.7286167,,,0,,Europe/Madrid,0
ALS_0000886200000001,,Vilatoba,,42.0162773,1.4335628,,,0,,Europe/Madrid,0
ALS_0000886500000001,,Vinebre,,41.1827431,0.5892785,,,0,,Europe/Madrid,0
ALS_0000886600000001,,Violi,,41.6179352,1.4475154,,,0,,Europe/Madrid,0
ALS_0000886700000001,,Viu De Llevata,,42.3700638,0.8098128,,,0,,Europe/Madrid,0
ALS_0000886800000001,,Xerta,,40.9079475,0.4884815,,,0,,Europe/Madrid,0
ALS_0000887000000001,,Os De Balaguer (E),,41.8649139,0.7421081,,,0,,Europe/Madrid,0
ALS_0000887100000001,,Pla De Ermita,,42.5160866,0.8566790,,,0,,Europe/Madrid,0
ALS_0000888300000001,,La Plana Berga,,42.0520897,1.8729652,,,0,,Europe/Madrid,0
ALS_0000888400000001,,Cal Bassacs Berga,,42.0196228,1.8832275,,,0,,Europe/Madrid,0
ALS_0000888600000001,,Gironella Ceip Berga,,42.0366974,1.8797754,,,0,,Europe/Madrid,0
ALS_0000889000000001,,Gironella Anunciata Berga,,42.0340385,1.8787882,,,0,,Europe/Madrid,0
ALS_0000889400000001,,Viladomiu Vell Berga,,42.0119896,1.8842359,,,0,,Europe/Madrid,0
ALS_0000889900000001,,Viladomiu Nou Berga,,42.0054016,1.8829324,,,0,,Europe/Madrid,0
ALS_0000892000000001,,Mora La Nova,,41.1008110,0.6510531,,,0,,Europe/Madrid,0
ALS_0000892100000001,,Móra Debre,,41.0885925,0.6446102,,,0,ALS_E0000892100000001,,0
ALS_0000897600000001,,Torrelameu,,41.7023888,0.7095515,,,0,,Europe/Madrid,0
ALS_0000897700000001,,Vilanova De La Sal,,41.8781242,0.7859732,,,0,,Europe/Madrid,0
ALS_0000897800000001,,Gerb,,41.8219452,0.8033023,,,0,,Europe/Madrid,0
ALS_0000897900000001,,Corbins,,41.6901817,0.6950534,,,0,,Europe/Madrid,0
ALS_0000898200000001,,Montagut,,41.6096687,0.5435656,,,0,,Europe/Madrid,0
ALS_0000899000000001,,Lleida,,41.6117172,0.6231386,,,0,ALS_E0000899000000001,,0
ALS_0000904200000001,,Vielha (Cine 2),,42.7040062,0.7942381,,,0,,Europe/Madrid,0
ALS_0000904300000001,,Casau Vielha,,42.7056541,0.7855332,,,0,,Europe/Madrid,0
ALS_0000904500000001,,Centre Escolar Vielha,,42.6997833,0.8023965,,,0,,Europe/Madrid,0
ALS_0000904600000001,,Arros Vielha,,42.7382126,0.7609321,,,0,,Europe/Madrid,0
ALS_0000908000000010,,Salou,,41.0772400,1.1431081,,,0,,Europe/Madrid,0
ALS_0000908000000011,,Salou,,41.0771332,1.1430348,,,0,,Europe/Madrid,0
ALS_0000908100000001,,Tarragona,,41.1182404,1.2442231,,,0,ALS_E0000908100000001,,0
ALS_0000924900000001,,Bausen,,42.8344193,0.7169977,,,0,,Europe/Madrid,0
ALS_0000926300000001,,Canejan Ll,,42.8381996,0.7390611,,,0,,Europe/Madrid,0
ALS_0000944100000001,,Mont Roig De Segarra (Emb),,41.7442513,1.1800169,,,0,,Europe/Madrid,0
ALS_0000944200000001,,La Cardosa,,41.6940002,1.2447164,,,0,,Europe/Madrid,0
ALS_0000944300000001,,L'aranyó-Montcortés,,41.7052956,1.2292030,,,0,,Europe/Madrid,0
ALS_0000950100000001,,Andorra,,42.5047760,1.5213891,,,0,ALS_E0000950100000001,,0
ALS_0000950800000001,,Pont D Arros,,42.7379074,0.7563845,,,0,,Europe/Madrid,0
ALS_0000956900000001,,Sant Llorenç De Montgai,,41.8679619,0.8411834,,,0,,Europe/Madrid,0
ALS_0000967000000001,,Pobla De Segur (Fgc),,42.2405624,0.9656711,,,0,,Europe/Madrid,0
ALS_0000979300000001,,Puigcerda-Plaça Barcelona,,42.4342613,1.9275532,,,0,,Europe/Madrid,0
ALS_0000996100000004,,Port Aventura,,41.0871277,1.1459128,,,0,,Europe/Madrid,0
ALS_0000996200000001,,Vinaixa,,41.4287720,0.9739532,,,0,,Europe/Madrid,0
ALS_0002105900000001,,Ramon Vinyes - Busberga,,42.1025429,1.8397440,,,0,,Europe/Madrid,0
ALS_0002106000000001,,Germanetes - Busberga,,42.1066399,1.8559593,,,0,,Europe/Madrid,0
ALS_0002106200000001,,Hotel D'entitats - Busberga,,42.1026039,1.8525152,,,0,,Europe/Madrid,0
ALS_0002106300000001,,Polígon - B - Busberga,,42.0916367,1.8246534,,,0,,Europe/Madrid,0
ALS_0002106400000001,,Fullaracs - Busberga,,42.0933914,1.8253582,,,0,,Europe/Madrid,0
ALS_0002106500000001,,Bruc - B - Busberga,,42.0957680,1.8377719,,,0,,Europe/Madrid,0
ALS_0002106600000001,,Bruc - A - Busberga,,42.0960007,1.8379352,,,0,,Europe/Madrid,0
ALS_0002106700000001,,Pl. De La Creu (Fin)- Busberga,,42.1013794,1.8437003,,,0,,Europe/Madrid,0
ALS_0002106800000001,,Casino - Busberga,,42.1023712,1.8436556,,,0,,Europe/Madrid,0
ALS_0002107000000001,,Bombers - Busberga,,42.1042976,1.8572347,,,0,,Europe/Madrid,0
ALS_0002107700000001,,Mossèn Armengou - Busberga,,42.0999985,1.8390353,,,0,,Europe/Madrid,0
ALS_0002107800000001,,Estaselles - Busberga,,42.1005440,1.8408979,,,0,,Europe/Madrid,0
ALS_0002107900000001,,Escola Vedruna - Busberga,,42.1020088,1.8411878,,,0,,Europe/Madrid,0
ALS_0002108000000001,,Escola Sant Joan,,42.1042252,1.8394122,,,0,,Europe/Madrid,0
ALS_0002108900000001,,Tanatori - Busberga,,42.1050644,1.8507649,,,0,,Europe/Madrid,0
ALS_0002109000000001,,Plaça Viladomat - Busberga,,42.1039925,1.8477637,,,0,,Europe/Madrid,0
ALS_0002109100000001,,Comte Oliba - Busberga,,42.0968208,1.8433164,,,0,,Europe/Madrid,0
ALS_0002109400000001,,Avià Barri De La Creu Busberga,,42.0845222,1.8264256,,,0,,Europe/Madrid,0
ALS_0002109500000001,,Avià - Ateneu - Busberga,,42.0771599,1.8223003,,,0,,Europe/Madrid,0
ALS_0002109600000001,,Avià - Carretera - Busberga,,42.0801086,1.8189365,,,0,,Europe/Madrid,0
ALS_0002109800000001,,Residència - A - Busberga,,42.0980377,1.8407301,,,0,,Europe/Madrid,0
ALS_0002109900000001,,Plaça De La Creu - Busberga,,42.1013870,1.8437312,,,0,,Europe/Madrid,0
ALS_0002110100000001,,Residència - B - Busberga,,42.0979538,1.8407466,,,0,,Europe/Madrid,0
ALS_0002110200000001,,La Valldan - A - Busberga,,42.0941315,1.8344270,,,0,,Europe/Madrid,0
ALS_0002110300000001,,Polígon - A - Busberga,,42.0912285,1.8274409,,,0,,Europe/Madrid,0
ALS_0002110500000001,,La Valldan - B - Busberga,,42.0941887,1.8346847,,,0,,Europe/Madrid,0
ALS_0002110700000001,,Font Del Ros - Busberga,,42.0970078,1.8447522,,,0,,Europe/Madrid,0
ALS_0002110900000001,,Zona Esportiva - Busberga,,42.0978813,1.8476881,,,0,,Europe/Madrid,0
ALS_0002111000000001,,Rasa Dels Molins - Busberga,,42.1012039,1.8481630,,,0,,Europe/Madrid,0
ALS_0002111200000001,,Sta Eulàlia - Busberga,,42.1018906,1.8536949,,,0,,Europe/Madrid,0
ALS_0002111300000001,,Plaça Gernika - Busberga,,42.1025276,1.8575292,,,0,,Europe/Madrid,0
ALS_0002111400000001,,Ambulatori - Busberga,,42.1045990,1.8536261,,,0,,Europe/Madrid,0
ALS_0002111500000001,,Hospital - Busberga,,42.1071701,1.8531971,,,0,,Europe/Madrid,0
ALS_0002112200000001,,Mercat Municipal - Busberga,,42.1026001,1.8463537,,,0,,Europe/Madrid,0
ALS_0002112300000001,,Sagàs - Busberga,,42.0996590,1.8586270,,,0,,Europe/Madrid,0
ALS_0002112400000001,,Mas Ribera - Busberga,,42.0989990,1.8630502,,,0,,Europe/Madrid,0
ALS_0002112500000001,,Escola Sta Eulàlia - Busberga,,42.1011467,1.8600972,,,0,,Europe/Madrid,0
ALS_0002112600000001,,Sant Bartomeu - Busberga,,42.0899010,1.8305795,,,0,,Europe/Madrid,0
ALS_0002112700000001,,Rasa Del Canyet - Busberga,,42.0986137,1.8411403,,,0,,Europe/Madrid,0
ALS_0002112900000001,,Roser - Busberga,,42.0992584,1.8417997,,,0,,Europe/Madrid,0
ALS_0002113000000001,,Tremp A.G.B.S,,42.1632576,0.8941499,,,0,,Europe/Madrid,0
ALS_0002113400000001,,Port Ainé,,42.4350929,1.2108283,,,0,,Europe/Madrid,0
ALS_0002113500000001,,Sarroca De Lleida,,41.4596977,0.5609343,,,0,,Europe/Madrid,0
ALS_0002113600000001,,Mollerussa - Font De L'albada,,41.6264381,0.8887469,,,0,,Europe/Madrid,0
ALS_0002114700000001,,Torrelameu (Uqd),,41.7052612,0.7092089,,,0,,Europe/Madrid,0
ALS_0002114800000001,,Vilanova La Barca(Plaça Nova),,41.6907845,0.7296898,,,0,,Europe/Madrid,0
ALS_0002114900000001,,Escola El Vinyet - Solsona,,41.9980354,1.5219409,,,0,,Europe/Madrid,0
ALS_0002115000000001,,Plana Del Bisbe,,41.6525459,0.6566010,,,0,,Europe/Madrid,0
ALS_0002115000000002,,Plana Del Bisbe,,41.6526337,0.6563409,,,0,,Europe/Madrid,0
ALS_0002115300000001,,Còrsega - Hospital Clínic,,41.3921890,2.1535277,,,0,,Europe/Madrid,0
ALS_0002115400000001,,Muntaner - Rossello,,41.3910980,2.1535277,,,0,,Europe/Madrid,0
ALS_0002173700000001,,Puigcerdà-Hospi Transfrontarer,,42.4434395,1.9309360,,,0,,Europe/Madrid,0
ALS_0002177200000001,,Vila,,42.7364960,0.7767107,,,0,,Europe/Madrid,0
ALS_0002177300000001,,Ins Mollerussa (Parc La Serra),,41.6170464,0.8679600,,,0,,Europe/Madrid,0
ALS_0002177400000001,,Gran Vía/Balmes (Barcelona),,41.3877258,2.1660142,,,0,,Europe/Madrid,0
ALS_0002177500000001,,Sarais (Cruce),,42.4750557,0.7773467,,,0,,Europe/Madrid,0
ALS_0002177600000001,,Coll (Cruce),,42.4716225,0.7779908,,,0,,Europe/Madrid,0
ALS_0002277300000001,,Francesc Macia Barcelona,,41.3930473,2.1456037,,,0,,Europe/Madrid,0
ALS_0002277400000001,,Bonanova Barcelona,,41.3976898,2.1358612,,,0,,Europe/Madrid,0
ALS_0002277500000001,,Uab: Fgc-Eix Central,,41.5038338,2.1030891,,,0,,Europe/Madrid,0
ALS_0002277700000001,,Campus Udl,,41.5849686,1.5929441,,,0,,Europe/Madrid,0
ALS_0002277800000001,,El Camping Ctfc Solsona,,42.0105019,1.5177400,,,0,,Europe/Madrid,0
ALS_0003050100000001,,Firals A-Blguer,,41.7934418,0.8028319,,,0,,Europe/Madrid,0
ALS_0003050200000001,,Carrer Erals A-Blguer,,41.7899628,0.8013886,,,0,,Europe/Madrid,0
ALS_0003050300000001,,Seca A-Blguer,,41.7867546,0.7972966,,,0,,Europe/Madrid,0
ALS_0003050400000001,,Roca Pallissa-Blguer,,41.7837524,0.7950993,,,0,,Europe/Madrid,0
ALS_0003050500000001,,Col.La Noguera A-Blguer,,41.7860794,0.7978706,,,0,,Europe/Madrid,0
ALS_0003050600000001,,Consell Comarcal A-Blguer,,41.7859955,0.8044711,,,0,,Europe/Madrid,0
ALS_0003050700000001,,La Miranda A-Blguer,,41.7876740,0.8060834,,,0,,Europe/Madrid,0
ALS_0003050800000001,,Pl.Mercadal A-Blguer,,41.7894249,0.8064587,,,0,,Europe/Madrid,0
ALS_0003050900000001,,Pl.Pau Casals-Blguer,,41.7898064,0.8080602,,,0,,Europe/Madrid,0
ALS_0003051000000001,,Passarel.La-Blguer,,41.7920761,0.8067475,,,0,,Europe/Madrid,0
ALS_0003051200000001,,Casal Davis A-Blguer,,41.7935028,0.8093842,,,0,,Europe/Madrid,0
ALS_0003051300000001,,Blocs La Caixa A-Blguer,,41.7925835,0.8118921,,,0,,Europe/Madrid,0
ALS_0003051400000001,,Inst.Ciutat D Balaguera-Blguer,,41.7913170,0.8152720,,,0,,Europe/Madrid,0
ALS_0003051500000001,,Poliesportiu-Blguer,,41.7904625,0.8176079,,,0,,Europe/Madrid,0
ALS_0003051600000001,,Hospital Nou-Blguer,,41.7904778,0.8176194,,,0,,Europe/Madrid,0
ALS_0003051900000001,,Inst.Ciutat D Balaguerb-Blguer,,41.7891922,0.8190328,,,0,,Europe/Madrid,0
ALS_0003052000000001,,Carrer Cadi A-Blguer,,41.7910843,0.8159354,,,0,,Europe/Madrid,0
ALS_0003052100000001,,Estacio De Trens A-Blguer,,41.7913742,0.8140040,,,0,,Europe/Madrid,0
ALS_0003052200000001,,P.Lestacio-Pl.Sardanaa-Blguer,,41.7884712,0.8146130,,,0,,Europe/Madrid,0
ALS_0003052600000001,,Encreuament Fleming-Blguer,,41.7851677,0.8104591,,,0,,Europe/Madrid,0
ALS_0003052700000001,,Estaciobus-Blguer,,41.7879982,0.8098186,,,0,,Europe/Madrid,0
ALS_0003052800000001,,Pau Casals-Passeig-Blguer,,41.7881165,0.8097183,,,0,,Europe/Madrid,0
ALS_0003053000000001,,Estacio De Trens B-Blguer,,41.7894020,0.8079736,,,0,,Europe/Madrid,0
ALS_0003053300000001,,Casal Davis B-Blguer,,41.7889671,0.8115180,,,0,,Europe/Madrid,0
ALS_0003053400000001,,Carrer Del Pont A-Blguer,,41.7889557,0.8145277,,,0,,Europe/Madrid,0
ALS_0003053600000001,,Portalet A-Blguer,,41.7927475,0.8116211,,,0,,Europe/Madrid,0
ALS_0003053700000001,,Bibliotecaa-Blguer,,41.7935371,0.8095160,,,0,,Europe/Madrid,0
ALS_0003053800000001,,Cap Ii A-Blguer,,41.7936096,0.8067945,,,0,,Europe/Madrid,0
ALS_0003054200000001,,Carrer Erals B-Blguer,,41.7892151,0.8063458,,,0,,Europe/Madrid,0
ALS_0003054300000001,,Carrer Erals C-Blguer,,41.7892075,0.8063223,,,0,,Europe/Madrid,0
ALS_0003054400000001,,Carrer Erals D-Blguer,,41.7880478,0.8057351,,,0,,Europe/Madrid,0
ALS_0003054500000001,,Carrer La Muralla A-Blguer,,41.7880669,0.8056400,,,0,,Europe/Madrid,0
ALS_0003054700000001,,Ies Almata-Blguer,,41.7979660,0.8047112,,,0,,Europe/Madrid,0
ALS_0003054800000001,,Esc.Gaspar De Portola-Blguer,,41.7874222,0.7992406,,,0,,Europe/Madrid,0
ALS_0003055000000001,,Col.Montroig-Blguer,,41.7877235,0.7995626,,,0,,Europe/Madrid,0
ALS_0003055100000001,,Blocs La Caixa Ii-Blguer,,41.7895126,0.8012465,,,0,,Europe/Madrid,0
ALS_0003055600000001,,Col.La Noguera B-Blguer,,41.7981987,0.8051375,,,0,,Europe/Madrid,0
ALS_0003055700000001,,Seca B-Blguer,,41.7979660,0.8047112,,,0,,Europe/Madrid,0
ALS_0003056200000001,,Seca C-Blguer,,41.7850037,0.7962813,,,0,,Europe/Madrid,0
ALS_0003056500000001,,Pl.Sant Jordi-Blguer,,41.7892151,0.8063372,,,0,,Europe/Madrid,0
ALS_0003056700000001,,Cementiri Nou-Blguer,,41.7861671,0.8049622,,,0,,Europe/Madrid,0
ALS_0003057200000001,,Pere Iii-Pasarel-Blguer,,41.7868080,0.7976982,,,0,,Europe/Madrid,0
ALS_0003057300000001,,Pere Iii-Vetles-Blguer,,41.7876663,0.8060943,,,0,,Europe/Madrid,0
ALS_0003057400000001,,Pallaressa-Urgell-Blguer,,41.7894287,0.8064576,,,0,,Europe/Madrid,0
ALS_0003059800000001,,N.Pallaresa-Cerve-Blguer,,41.7867508,0.7973601,,,0,,Europe/Madrid,0
ALS_0003059900000001,,Franqueses-Girona-Blguer,,41.7877159,0.7995546,,,0,,Europe/Madrid,0
ALS_0003060000000001,,Z.Esportivsecac-Blguer,,41.7895241,0.8012505,,,0,,Europe/Madrid,0
ALS_0003070100000001,,Cal Llarg-Sols,,41.9820442,1.5058620,,,0,,Europe/Madrid,0
ALS_0003070200000001,,Barri J. Torregassa - Sols,,41.9912567,1.5119582,,,0,,Europe/Madrid,0
ALS_0003070300000001,,Z.Esportiva-Ins F.Ribalt-Sols,,41.9876213,1.5167974,,,0,,Europe/Madrid,0
ALS_0003070400000001,,C. Sanitari-Arrels I- Sols,,41.9922028,1.5155834,,,0,,Europe/Madrid,0
ALS_0003070500000001,,Escola Setelsis-Arrels Ii-Sols,,41.9935303,1.5109819,,,0,,Europe/Madrid,0
ALS_0003070700000001,,Casal Civic-Sols,,41.9953499,1.5129684,,,0,,Europe/Madrid,0
ALS_0003070800000001,,Est. Aurobusos-Sols,,41.9964218,1.5159644,,,0,,Europe/Madrid,0
ALS_0003070900000001,,Av. Del Pont. 1-Sols,,41.9952431,1.5210900,,,0,,Europe/Madrid,0
ALS_0003071000000001,,Urb. Cal Geli-Sols,,41.9999847,1.5192423,,,0,,Europe/Madrid,0
ALS_0003071200000001,,Cementeri-Sols,,41.9992523,1.5241749,,,0,,Europe/Madrid,0
ALS_0003071300000001,,Urb. La Cissa,,41.9964714,1.5254343,,,0,,Europe/Madrid,0
ALS_0003071400000001,,Urb. Cal Xuxa-Sols,,41.9937744,1.5273812,,,0,,Europe/Madrid,0
ALS_0003071500000001,,Pol. Ind. Els Ametllers-Sols,,41.9908981,1.5411206,,,0,,Europe/Madrid,0
ALS_0003071800000001,,Pol. Ind Olius-Sols,,41.9811096,1.5534444,,,0,,Europe/Madrid,0
ALS_0003071900000001,,Urb. El Pi-Escola Agraria-Sols,,41.9791222,1.5560973,,,0,,Europe/Madrid,0
ALS_0003072000000001,,Ll.I. El Pi - Plz Olivera-Sols,,41.9769173,1.5555712,,,0,,Europe/Madrid,0
ALS_0003072100000001,,Urb. El Pi De St Just Ii-Sols,,41.9724274,1.5604048,,,0,,Europe/Madrid,0
ALS_0003072200000001,,La Rodonella,,42.1646423,1.8553915,,,0,,Europe/Madrid,0
ALS_E0000059500000001,,Estación de Autobuses de Barcelona (Nord),,41.3940659,2.1829441,,,1,,Europe/Madrid,0
ALS_E0000149500000001,,Estación de Autobuses de Manresa,,41.7317314,1.8325952,,,1,,Europe/Madrid,0
ALS_E0000210100000001,,Estación de Autobuses de Les Borges Blanques,,41.5183296,0.8701298,,,1,,Europe/Madrid,0
ALS_E0000386100000101,,Estación de Autobuses de Juneda,,41.5466003,0.8220558,,,1,,Europe/Madrid,0
ALS_E0000709000000002,,Estación de Autobuses de Cambrils,,41.0691071,1.0557206,,,1,,Europe/Madrid,0
ALS_E0000709900000001,,Estación de Autobuses de Tortosa,,40.8060608,0.5217325,,,1,,Europe/Madrid,0
ALS_E0000850400000001,,Estación de Autobuses de Agramunt,,41.7845459,1.0949745,,,1,,Europe/Madrid,0
ALS_E0000854200000001,,Estación de Autobuses de Balaguer,,41.7878342,0.8076075,,,1,,Europe/Madrid,0
ALS_E0000860800000001,,Estación de Autobuses de Cervera,,41.6736641,1.2738135,,,1,,Europe/Madrid,0
ALS_E0000868100000001,,Estación de Autobuses de Igualada,,41.5775261,1.6312767,,,1,,Europe/Madrid,0
ALS_E0000871000000001,,Estación de Autobuses de Mollerussa (Est.Autobuses),,41.6323318,0.8967219,,,1,,Europe/Madrid,0
ALS_E0000872400000001,,Estación de Autobuses de Navas.,,41.9018364,1.8787264,,,1,,Europe/Madrid,0
ALS_E0000875000000001,,Estación de Autobuses de Pobla De Segur (Estacion Bus),,42.2465782,0.9673333,,,1,,Europe/Madrid,0
ALS_E0000875700000001,,Estación de Autobuses de El Pont De Suert,,42.4078827,0.7424840,,,1,,Europe/Madrid,0
ALS_E0000878000000001,,Estación de Autobuses de Ripoll,,42.1970444,2.1950581,,,1,,Europe/Madrid,0
ALS_E0000880400000001,,Estación de Autobuses de Seu D Urgell,,42.3596077,1.4599050,,,1,,Europe/Madrid,0
ALS_E0000880700000001,,Estación de Autobuses de Solsona,,41.9963226,1.5158343,,,1,,Europe/Madrid,0
ALS_E0000881000000001,,Estación de Autobuses de Sort,,42.4119034,1.1317366,,,1,,Europe/Madrid,0
ALS_E0000881600000001,,Estación de Autobuses de Suria,,41.8323326,1.7504388,,,1,,Europe/Madrid,0
ALS_E0000883400000001,,Estación de Autobuses de Tremp,,42.1676254,0.8917057,,,1,,Europe/Madrid,0
ALS_E0000892100000001,,Estación de Autobuses de Móra Debre,,41.0885925,0.6446102,,,1,,Europe/Madrid,0
ALS_E0000899000000001,,Estación de Autobuses de Lleida,,41.6117172,0.6231386,,,1,,Europe/Madrid,0
ALS_E0000908100000001,,Estación de Autobuses de Tarragona,,41.1182404,1.2442231,,,1,,Europe/Madrid,0
ALS_E0000950100000001,,Estación de Autobuses de Andorra,,42.5047760,1.5213891,,,1,,Europe/Andorra,0
AMB_000002,2,Av Icària - Àlaba,Marquesina,41.3931040,2.1989850,,https://app.ambmobilitat.cat/stops/busamb:000002,0,,,0
AMB_000003,3,València - Muntaner,Marquesina,41.3885460,2.1578910,,https://app.ambmobilitat.cat/stops/busamb:000003,0,,,1
AMB_000004,4,Mallorca - Balmes,Marquesina,41.3910210,2.1587320,,https://app.ambmobilitat.cat/stops/busamb:000004,0,,,0
AMB_000007,7,Pl Universitat,Marquesina,41.3859070,2.1633100,,https://app.ambmobilitat.cat/stops/busamb:000007,0,,,1
AMB_000012,12,Llinars - Santander,Pal,41.4347550,2.2073050,,https://app.ambmobilitat.cat/stops/busamb:000012,0,,,0
AMB_000013,13,Sas - Claramunt,Marquesina,41.4375910,2.2041830,,https://app.ambmobilitat.cat/stops/busamb:000013,0,,,1
AMB_000015,15,Via Favència - Almagro,Marquesina,41.4439100,2.1720550,,https://app.ambmobilitat.cat/stops/busamb:000015,0,,,1
AMB_000016,16,Via Favència - Castor,Marquesina,41.4426900,2.1701980,,https://app.ambmobilitat.cat/stops/busamb:000016,0,,,0
AMB_000018,18,Antonio Machado - E M de Natació,Marquesina,41.4442950,2.1705050,,https://app.ambmobilitat.cat/stops/busamb:000018,0,,,0
AMB_000020,20,Antonio Machado - Artesania,Pal,41.4443850,2.1708210,,https://app.ambmobilitat.cat/stops/busamb:000020,0,,,0
AMB_000021,21,Palau Reial,Marquesina,41.3855930,2.1161370,,https://app.ambmobilitat.cat/stops/busamb:000021,0,,,1
AMB_000022,22,Av República Argentina - Vallcarca,Marquesina,41.4113650,2.1439730,,https://app.ambmobilitat.cat/stops/busamb:000022,0,,,0
AMB_000024,24,Ronda Guineueta Vella - Barri Canyelles,Marquesina,41.4443250,2.1652190,,https://app.ambmobilitat.cat/stops/busamb:000024,0,,,1
AMB_000025,25,Ronda Guineueta Vella - Escola Deià,Marquesina,41.4448350,2.1677870,,https://app.ambmobilitat.cat/stops/busamb:000025,0,,,1
AMB_000027,27,Metro Marina,Marquesina,41.3944280,2.1876053,,https://app.ambmobilitat.cat/stops/busamb:000027,0,,,1
AMB_000028,28,Hospital Vall d'Hebron,Marquesina,41.4268920,2.1429920,,https://app.ambmobilitat.cat/stops/busamb:000028,0,,,0
AMB_000031,31,Llull - Àlaba,Marquesina,41.3960200,2.1955200,,https://app.ambmobilitat.cat/stops/busamb:000031,0,,,0
AMB_000032,32,Metro Glòries,Marquesina,41.4030205,2.1880843,,https://app.ambmobilitat.cat/stops/busamb:000032,0,,,0
AMB_000033,33,Salvador Espriu - Jaume Vicens Vives,Marquesina,41.3928213,2.2022913,,https://app.ambmobilitat.cat/stops/busamb:000033,0,,,1
AMB_000034,34,Av Icària - Av Bogatell,Marquesina,41.3930250,2.1993180,,https://app.ambmobilitat.cat/stops/busamb:000034,0,,,0
AMB_000036,36,Metro Marina,Marquesina,41.3941530,2.1875450,,https://app.ambmobilitat.cat/stops/busamb:000036,0,,,1
AMB_000038,38,Marina - Ribes,Marquesina,41.3977090,2.1829320,,https://app.ambmobilitat.cat/stops/busamb:000038,0,,,0
AMB_000039,39,Pg de Sant Joan - Alí-Bei,Marquesina,41.3925530,2.1787870,,https://app.ambmobilitat.cat/stops/busamb:000039,0,,,1
AMB_000041,41,Diagonal - Doctor Fleming,Marquesina,41.3907100,2.1363220,,https://app.ambmobilitat.cat/stops/busamb:000041,0,,,0
AMB_000042,42,Diagonal - L'Illa Diagonal,Marquesina,41.3895989,2.1334827,,https://app.ambmobilitat.cat/stops/busamb:000042,0,,,1
AMB_000043,43,Pg  Zona Franca - Foneria,Marquesina,41.3598260,2.1390790,,https://app.ambmobilitat.cat/stops/busamb:000043,0,,,1
AMB_000044,44,Pg  Zona Franca - Foc,Marquesina,41.3568630,2.1415390,,https://app.ambmobilitat.cat/stops/busamb:000044,0,,,1
AMB_000048,48,Palau d'Esports Vall d'Hebron,Marquesina,41.4279200,2.1441650,,https://app.ambmobilitat.cat/stops/busamb:000048,0,,,1
AMB_000054,54,Comte d'Urgell - Aragó,Marquesina,41.3845740,2.1554670,,https://app.ambmobilitat.cat/stops/busamb:000054,0,,,0
AMB_000055,55,Pg de Gràcia - Aragó,Marquesina,41.3918000,2.1655030,,https://app.ambmobilitat.cat/stops/busamb:000055,0,,,0
AMB_000058,58,Aribau - Aragó,Marquesina,41.3878990,2.1600790,,https://app.ambmobilitat.cat/stops/busamb:000058,0,,,0
AMB_000059,59,Entença - Consell de Cent,Marquesina,41.3800830,2.1500880,,https://app.ambmobilitat.cat/stops/busamb:000059,0,,,0
AMB_000060,60,Llúria - Aragó,Marquesina,41.3938980,2.1679250,,https://app.ambmobilitat.cat/stops/busamb:000060,0,,,0
AMB_000063,63,Pg de Sant Joan - Aragó,Marquesina,41.3973860,2.1723910,,https://app.ambmobilitat.cat/stops/busamb:000063,0,,,1
AMB_000064,64,Montserrat Roig - Lleó Fontova,Marquesina,41.3627550,2.0617720,,https://app.ambmobilitat.cat/stops/busamb:000064,0,,,0
AMB_000069,69,Pg Sant Gervasi - Mas Yebra,Marquesina,41.4121010,2.1381900,,https://app.ambmobilitat.cat/stops/busamb:000069,0,,,0
AMB_000079,79,Aeroport T2B - Sortides,Pal,41.3029300,2.0759460,,https://app.ambmobilitat.cat/stops/busamb:000079,0,,,1
AMB_000080,80,Aeroport T2B - Arribades,Pal,41.3041299,2.0792777,,https://app.ambmobilitat.cat/stops/busamb:000080,0,,,1
AMB_000081,81,Aeroport T2C,Pal,41.3050330,2.0818750,,https://app.ambmobilitat.cat/stops/busamb:000081,0,,,0
AMB_000084,84,Av Santa Coloma,Marquesina,41.4481850,2.2078820,,https://app.ambmobilitat.cat/stops/busamb:000084,0,,,1
AMB_000085,85,Metro Can Peixauet,Marquesina,41.4449327,2.2096130,,https://app.ambmobilitat.cat/stops/busamb:000085,0,,,1
AMB_000088,88,Torreblanca - Av. Generalitat,Monolit,41.3760700,2.0561320,,https://app.ambmobilitat.cat/stops/busamb:000088,0,,,1
AMB_000089,89,Torreblanca - Pla del Vent,Marquesina,41.3791980,2.0613230,,https://app.ambmobilitat.cat/stops/busamb:000089,0,,,0
AMB_000090,90,Torreblanca - Rubió i Tudurí,Marquesina,41.3777650,2.0589480,,https://app.ambmobilitat.cat/stops/busamb:000090,0,,,1
AMB_000091,91,Av Granvia - Miguel Hernández,Marquesina,41.3527630,2.1202140,,https://app.ambmobilitat.cat/stops/busamb:000091,0,,,0
AMB_000092,92,Pl Europa,Marquesina,41.3583530,2.1265770,,https://app.ambmobilitat.cat/stops/busamb:000092,0,,,0
AMB_000094,94,Diagonal - Balmes,Marquesina,41.3954040,2.1553820,,https://app.ambmobilitat.cat/stops/busamb:000094,0,,,0
AMB_000095,95,Gran Via - Balmes,Monolit,41.3878540,2.1658040,,https://app.ambmobilitat.cat/stops/busamb:000095,0,,,0
AMB_000096,96,Mitre - Muntaner,Marquesina,41.4030950,2.1384650,,https://app.ambmobilitat.cat/stops/busamb:000096,0,,,0
AMB_000098,98,València - Balmes,Marquesina,41.3901980,2.1600810,,https://app.ambmobilitat.cat/stops/busamb:000098,0,,,0
AMB_000099,99,Mitre - Saragossa,Pal,41.4053980,2.1434700,,https://app.ambmobilitat.cat/stops/busamb:000099,0,,,0
AMB_000105,105,Guipúscoa - Bac de Roda,Monolit,41.4149700,2.1955470,,https://app.ambmobilitat.cat/stops/busamb:000105,0,,,1
AMB_000106,106,Guipúscoa - Bac de Roda,Monolit,41.4150470,2.1950570,,https://app.ambmobilitat.cat/stops/busamb:000106,0,,,1
AMB_000108,108,Pl Espanya - FGC,Marquesina,41.3737622,2.1471762,,https://app.ambmobilitat.cat/stops/busamb:000108,0,,,0
AMB_000109,109,Numància - Marquès de Sentmenat,Marquesina,41.3846070,2.1374560,,https://app.ambmobilitat.cat/stops/busamb:000109,0,,,0
AMB_000112,112,Bifurcació - del Molí,Marquesina,41.4718050,2.1834160,,https://app.ambmobilitat.cat/stops/busamb:000112,0,,,1
AMB_000113,113,Bifurcació - Pl Sant Joan,Marquesina,41.4697004,2.1809089,,https://app.ambmobilitat.cat/stops/busamb:000113,0,,,1
AMB_000114,114,Bifurcació - Ctra Nacional 152,Pal,41.4669310,2.1789618,,https://app.ambmobilitat.cat/stops/busamb:000114,0,,,1
AMB_000115,115,Ctra Nacional 152 - Bifurcació,Pal,41.4670710,2.1789910,,https://app.ambmobilitat.cat/stops/busamb:000115,0,,,0
AMB_000116,116,Vinyes - Pont,Pal,41.4691570,2.1807940,,https://app.ambmobilitat.cat/stops/busamb:000116,0,,,1
AMB_000117,117,Av de la Ribera - Pl de la Ribera,Marquesina,41.4769869,2.1890376,,https://app.ambmobilitat.cat/stops/busamb:000117,0,,,1
AMB_000118,118,Bolívar - Ballester,Marquesina,41.4092540,2.1477120,,https://app.ambmobilitat.cat/stops/busamb:000118,0,,,1
AMB_000119,119,Av de Vallcarca - Pl Lesseps,Marquesina,41.4085980,2.1489510,,https://app.ambmobilitat.cat/stops/busamb:000119,0,,,0
AMB_000120,120,Av Riera de Cassoles - Rambla de Prat,Marquesina,41.4015260,2.1512300,,https://app.ambmobilitat.cat/stops/busamb:000120,0,,,0
AMB_000123,123,Arc de Triomf,Marquesina,41.3912740,2.1787180,,https://app.ambmobilitat.cat/stops/busamb:000123,0,,,0
AMB_000125,125,Metro Tetuan,Marquesina,41.3937900,2.1742190,,https://app.ambmobilitat.cat/stops/busamb:000125,0,,,0
AMB_000126,126,Mercat de la Concepció,Marquesina,41.3969880,2.1691090,,https://app.ambmobilitat.cat/stops/busamb:000126,0,,,1
AMB_000127,127,Segre - Pl de Can Fabra,Monolit,41.4351380,2.1918620,,https://app.ambmobilitat.cat/stops/busamb:000127,0,,,0
AMB_000129,129,Av de Vallcarca - Ballester,Pal,41.4096250,2.1476210,,https://app.ambmobilitat.cat/stops/busamb:000129,0,,,0
AMB_000130,130,Pg  Lluís Companys - Parc de la Ciutadella,Marquesina,41.3895010,2.1835280,,https://app.ambmobilitat.cat/stops/busamb:000130,0,,,0
AMB_000133,133,Via Augusta - Pau Alcover,Pal,41.3984310,2.1259340,,https://app.ambmobilitat.cat/stops/busamb:000133,0,,,1
AMB_000134,134,Pg Bonanova,Marquesina,41.3999430,2.1240380,,https://app.ambmobilitat.cat/stops/busamb:000134,0,,,0
AMB_000138,138,València - Comte d'Urgell,Marquesina,41.3860200,2.1545370,,https://app.ambmobilitat.cat/stops/busamb:000138,0,,,0
AMB_000139,139,Mallorca - Comte d'Urgell,Marquesina,41.3867910,2.1531190,,https://app.ambmobilitat.cat/stops/busamb:000139,0,,,0
AMB_000140,140,Paral·lel - Ronda Sant Pau,Marquesina,41.3750620,2.1671710,,https://app.ambmobilitat.cat/stops/busamb:000140,0,,,0
AMB_000146,146,Rosselló - Bruc,Marquesina,41.3980750,2.1637440,,https://app.ambmobilitat.cat/stops/busamb:000146,0,,,1
AMB_000148,148,Ronda Sant Pere - Girona,Marquesina,41.3902490,2.1759620,,https://app.ambmobilitat.cat/stops/busamb:000148,0,,,0
AMB_000149,149,Gran Via - Llúria,Marquesina,41.3918700,2.1716750,,https://app.ambmobilitat.cat/stops/busamb:000149,0,,,1
AMB_000151,151,Av de Cornellà - Montesa,Marquesina,41.3696410,2.0811090,,https://app.ambmobilitat.cat/stops/busamb:000151,0,,,0
AMB_000152,152,Rambla dels Països Catalans - Ptge Formentera,Pal,41.4915184,2.1849050,,https://app.ambmobilitat.cat/stops/busamb:000152,0,,,1
AMB_000154,154,Pg Valldaura - Pg Andreu Nin,Marquesina,41.4392800,2.1825030,,https://app.ambmobilitat.cat/stops/busamb:000154,0,,,0
AMB_000159,159,Caracas - Potosí,Marquesina,41.4440600,2.2026930,,https://app.ambmobilitat.cat/stops/busamb:000159,0,,,0
AMB_000162,162,Sagrera - Múrcia,Pal,41.4176520,2.1914880,,https://app.ambmobilitat.cat/stops/busamb:000162,0,,,0
AMB_000163,163,Pl. d'Amalvígia,Marquesina,41.3524460,2.1084900,,https://app.ambmobilitat.cat/stops/busamb:000163,0,,,1
AMB_000164,164,Santa Rosalia - Besòs,Pal,41.4216900,2.1466790,,https://app.ambmobilitat.cat/stops/busamb:000164,0,,,1
AMB_000165,165,València - Villarroel,Marquesina,41.3868310,2.1556080,,https://app.ambmobilitat.cat/stops/busamb:000165,0,,,0
AMB_000166,166,Mallorca - Muntaner,Marquesina,41.3895120,2.1567210,,https://app.ambmobilitat.cat/stops/busamb:000166,0,,,0
AMB_000167,167,Gran Via - Casanova,Monolit,41.3842500,2.1609990,,https://app.ambmobilitat.cat/stops/busamb:000167,0,,,1
AMB_000168,168,Diagonal - Francesc Macià,Marquesina,41.3931180,2.1463550,,https://app.ambmobilitat.cat/stops/busamb:000168,0,,,0
AMB_000171,171,París - Casanova,Marquesina,41.3911010,2.1499740,,https://app.ambmobilitat.cat/stops/busamb:000171,0,,,0
AMB_000173,173,Villarroel - Aragó,Marquesina,41.3852910,2.1565510,,https://app.ambmobilitat.cat/stops/busamb:000173,0,,,0
AMB_000174,174,Pau Claris - Aragó,Marquesina,41.3927510,2.1669890,,https://app.ambmobilitat.cat/stops/busamb:000174,0,,,0
AMB_000175,175,Balmes - Aragó,Marquesina,41.3893800,2.1624000,,https://app.ambmobilitat.cat/stops/busamb:000175,0,,,0
AMB_000179,179,Sants - Gayarre,Marquesina,41.3752570,2.1396620,,https://app.ambmobilitat.cat/stops/busamb:000179,0,,,1
AMB_000180,180,Creu Coberta - Pl Espanya,Marquesina,41.3752220,2.1475370,,https://app.ambmobilitat.cat/stops/busamb:000180,0,,,1
AMB_000181,181,Metro Hostafrancs,Marquesina,41.3752810,2.1445630,,https://app.ambmobilitat.cat/stops/busamb:000181,0,,,1
AMB_000182,182,Pg de Gràcia - Consell de Cent,Marquesina,41.3916150,2.1654300,,https://app.ambmobilitat.cat/stops/busamb:000182,0,,,0
AMB_000183,183,Gran Via - Ildefons Cerdà,Marquesina,41.3658260,2.1365600,,https://app.ambmobilitat.cat/stops/busamb:000183,0,,,1
AMB_000185,185,Av Granvia - Bloc I. Cerdà,Marquesina,41.3617820,2.1319600,,https://app.ambmobilitat.cat/stops/busamb:000185,0,,,1
AMB_000187,187,Escorial - Clínica Nostra Senyora del Remei,Marquesina,41.4098040,2.1590310,,https://app.ambmobilitat.cat/stops/busamb:000187,0,,,0
AMB_000191,191,Bac de Roda - Cristóbal de Moura,Marquesina,41.4081520,2.2032690,,https://app.ambmobilitat.cat/stops/busamb:000191,0,,,1
AMB_000193,193,Rambla Prim - Cristóbal de Moura,Marquesina,41.4161560,2.2124400,,https://app.ambmobilitat.cat/stops/busamb:000193,0,,,1
AMB_000194,194,Sant Joan Baptista,Pal,41.4274631,2.2250802,,https://app.ambmobilitat.cat/stops/busamb:000194,0,,,0
AMB_000195,195,Can Caralleu,Marquesina,41.4019690,2.1116300,,https://app.ambmobilitat.cat/stops/busamb:000195,0,,,0
AMB_000198,198,Camí de Can Caralleu - Ronda de Dalt,Pal,41.4018370,2.1143630,,https://app.ambmobilitat.cat/stops/busamb:000198,0,,,0
AMB_000199,199,Pg  Zona Franca - Cisell,Marquesina,41.3543960,2.1429760,,https://app.ambmobilitat.cat/stops/busamb:000199,0,,,1
AMB_000200,200,Pg  Zona Franca - Motors,Marquesina,41.3516950,2.1453390,,https://app.ambmobilitat.cat/stops/busamb:000200,0,,,1
AMB_000202,202,Via Augusta - Calvet,Marquesina,41.3977200,2.1390950,,https://app.ambmobilitat.cat/stops/busamb:000202,0,,,1
AMB_000203,203,Jutjats de Pau,Marquesina,41.3850920,2.0730060,,https://app.ambmobilitat.cat/stops/busamb:000203,0,,,0
AMB_000206,206,Gran Via - Calàbria,Monolit,41.3801200,2.1555120,,https://app.ambmobilitat.cat/stops/busamb:000206,0,,,1
AMB_000207,207,Mallorca - Viladomat,Marquesina,41.3844970,2.1500580,,https://app.ambmobilitat.cat/stops/busamb:000207,0,,,0
AMB_000208,208,París - Viladomat,Marquesina,41.3877220,2.1454930,,https://app.ambmobilitat.cat/stops/busamb:000208,0,,,0
AMB_000209,209,Paral·lel - Marquès de Campo Sagrado,Marquesina,41.3750960,2.1637200,,https://app.ambmobilitat.cat/stops/busamb:000209,0,,,1
AMB_000211,211,Via Laietana - Comtal,Marquesina,41.3870920,2.1744630,,https://app.ambmobilitat.cat/stops/busamb:000211,0,,,1
AMB_000212,212,Indústria - Independència,Monolit,41.4126070,2.1784750,,https://app.ambmobilitat.cat/stops/busamb:000212,0,,,0
AMB_000213,213,Pg de Sant Joan - Còrsega,Marquesina,41.4024280,2.1659476,,https://app.ambmobilitat.cat/stops/busamb:000213,0,,,1
AMB_000214,214,Casanova - Hospital Clínic,Marquesina,41.3904390,2.1525710,,https://app.ambmobilitat.cat/stops/busamb:000214,0,,,1
AMB_000216,216,Padilla - Provença,Marquesina,41.4064966,2.1762244,,https://app.ambmobilitat.cat/stops/busamb:000216,0,,,0
AMB_000221,221,Balmes - Rosselló,Marquesina,41.3935600,2.1568830,,https://app.ambmobilitat.cat/stops/busamb:000221,0,,,0
AMB_000222,222,Aribau - Còrsega,Marquesina,41.3922490,2.1543190,,https://app.ambmobilitat.cat/stops/busamb:000222,0,,,0
AMB_000226,226,Pau Claris - Gran Via,Monolit,41.3909460,2.1693740,,https://app.ambmobilitat.cat/stops/busamb:000226,0,,,1
AMB_000227,227,Marina - Ausiàs Marc,Marquesina,41.3976570,2.1833559,,https://app.ambmobilitat.cat/stops/busamb:000227,0,,,1
AMB_000230,230,Llúria - Urquinaona,Marquesina,41.3901870,2.1728370,,https://app.ambmobilitat.cat/stops/busamb:000230,0,,,0
AMB_000231,231,Ronda Guineueta Vella - Antonio Machado,Pal,41.4415370,2.1620560,,https://app.ambmobilitat.cat/stops/busamb:000231,0,,,1
AMB_000232,232,Pl Karl Marx - Pg  Vall d'Hebron,Marquesina,41.4406770,2.1617210,,https://app.ambmobilitat.cat/stops/busamb:000232,0,,,1
AMB_000233,233,Sant Antoni Maria Claret - Independència,Marquesina,41.4132570,2.1769820,,https://app.ambmobilitat.cat/stops/busamb:000233,0,,,0
AMB_000234,234,Mallorca - Dos de Maig,Marquesina,41.4073110,2.1804170,,https://app.ambmobilitat.cat/stops/busamb:000234,0,,,0
AMB_000235,235,Consell de Cent - Castillejos,Pal,41.4032198,2.1820065,,https://app.ambmobilitat.cat/stops/busamb:000235,0,,,1
AMB_000236,236,Aragó - Enamorats,Marquesina,41.4058340,2.1829550,,https://app.ambmobilitat.cat/stops/busamb:000236,0,,,0
AMB_000237,237,Diagonal - Pl Reina Maria Cristina,Marquesina,41.3884822,2.1274303,,https://app.ambmobilitat.cat/stops/busamb:000237,0,,,1
AMB_000239,239,Manuel Girona - Carles III,Marquesina,41.3921270,2.1281230,,https://app.ambmobilitat.cat/stops/busamb:000239,0,,,0
AMB_000243,243,Av Gaudí - Castillejos,Marquesina,41.4106200,2.1734800,,https://app.ambmobilitat.cat/stops/busamb:000243,0,,,1
AMB_000244,244,València - Padilla,Marquesina,41.4046880,2.1794030,,https://app.ambmobilitat.cat/stops/busamb:000244,0,,,0
AMB_000245,245,Pl de la Font Castellana,Marquesina,41.4151640,2.1668820,,https://app.ambmobilitat.cat/stops/busamb:000245,0,,,1
AMB_000247,247,Metro Glòries,Monolit,41.4024311,2.1870926,,https://app.ambmobilitat.cat/stops/busamb:000247,0,,,0
AMB_000250,250,Diagonal - Manuel Ballbé,Marquesina,41.3840802,2.1100760,,https://app.ambmobilitat.cat/stops/busamb:000250,0,,,0
AMB_000251,251,Diagonal - Parc de Cervantes,Marquesina,41.3836310,2.1083860,,https://app.ambmobilitat.cat/stops/busamb:000251,0,,,0
AMB_000252,252,Portal de la Pau,Marquesina,41.3766950,2.1785410,,https://app.ambmobilitat.cat/stops/busamb:000252,0,,,1
AMB_000253,253,Moll de la Fusta,Marquesina,41.3788450,2.1802780,,https://app.ambmobilitat.cat/stops/busamb:000253,0,,,1
AMB_000254,254,Pg  Colom - Via Laietana,Marquesina,41.3808868,2.1819211,,https://app.ambmobilitat.cat/stops/busamb:000254,0,,,1
AMB_000255,255,Pg  Colom - Via Laietana,Marquesina,41.3807458,2.1817147,,https://app.ambmobilitat.cat/stops/busamb:000255,0,,,1
AMB_000256,256,Moll de la Fusta,Marquesina,41.3790980,2.1803790,,https://app.ambmobilitat.cat/stops/busamb:000256,0,,,1
AMB_000257,257,Portal de la Pau,Marquesina,41.3767000,2.1784420,,https://app.ambmobilitat.cat/stops/busamb:000257,0,,,1
AMB_000259,259,Ctra Nacional 152 - Av l'Alzinar,Marquesina,41.4609100,2.1831570,,https://app.ambmobilitat.cat/stops/busamb:000259,0,,,1
AMB_000261,261,Pg Sant Gervasi - Pl Kennedy,Monolit,41.4103530,2.1376590,,https://app.ambmobilitat.cat/stops/busamb:000261,0,,,1
AMB_000262,262,Av República Argentina - Baixada Gomis,Marquesina,41.4116090,2.1424360,,https://app.ambmobilitat.cat/stops/busamb:000262,0,,,0
AMB_000263,263,Av Madrid - Arizala,Marquesina,41.3770420,2.1251510,,https://app.ambmobilitat.cat/stops/busamb:000263,0,,,1
AMB_000266,266,Gran Vista - Doctor Bové,Marquesina,41.4191480,2.1581980,,https://app.ambmobilitat.cat/stops/busamb:000266,0,,,1
AMB_000273,273,Hospital del Mar,Marquesina,41.3835800,2.1950210,,https://app.ambmobilitat.cat/stops/busamb:000273,0,,,1
AMB_000276,276,Centre Miquel Martí i Pol,Marquesina,41.3688760,2.0714160,,https://app.ambmobilitat.cat/stops/busamb:000276,0,,,0
AMB_000281,281,Pg de Gràcia - Diagonal,Marquesina,41.3961400,2.1601250,,https://app.ambmobilitat.cat/stops/busamb:000281,0,,,0
AMB_000282,282,Casanova - Diagonal,Marquesina,41.3931810,2.1485770,,https://app.ambmobilitat.cat/stops/busamb:000282,0,,,0
AMB_000284,284,Lepant - Diagonal,Marquesina,41.4024210,2.1792610,,https://app.ambmobilitat.cat/stops/busamb:000284,0,,,1
AMB_000285,285,Muntaner - Diagonal,Marquesina,41.3944740,2.1489150,,https://app.ambmobilitat.cat/stops/busamb:000285,0,,,0
AMB_000286,286,Via Augusta - Diagonal,Pal,41.3964210,2.1550360,,https://app.ambmobilitat.cat/stops/busamb:000286,0,,,1
AMB_000287,287,Calvet - Diagonal,Monolit,41.3934600,2.1449830,,https://app.ambmobilitat.cat/stops/busamb:000287,0,,,1
AMB_000289,289,Balmes - Diagonal,Marquesina,41.3957760,2.1540220,,https://app.ambmobilitat.cat/stops/busamb:000289,0,,,0
AMB_000293,293,Av Joan XXIII - Pl Pius XII,Marquesina,41.3856410,2.1226140,,https://app.ambmobilitat.cat/stops/busamb:000293,0,,,0
AMB_000295,295,González Tablas - Sor Eulàlia d'Anzizu,Marquesina,41.3857650,2.1088590,,https://app.ambmobilitat.cat/stops/busamb:000295,0,,,0
AMB_000296,296,Av Doctor Marañón - Baldiri i Reixac,Marquesina,41.3820550,2.1139650,,https://app.ambmobilitat.cat/stops/busamb:000296,0,,,0
AMB_000300,300,Pujades - Ciutat de Granada,Marquesina,41.3987800,2.1967670,,https://app.ambmobilitat.cat/stops/busamb:000300,0,,,0
AMB_000306,306,Pg Verdum - Doctor Pi i Molist,Marquesina,41.4358690,2.1723750,,https://app.ambmobilitat.cat/stops/busamb:000306,0,,,0
AMB_000307,307,Av Gaudí,Marquesina,41.4100320,2.1751540,,https://app.ambmobilitat.cat/stops/busamb:000307,0,,,0
AMB_000308,308,València - Dos de Maig,Marquesina,41.4064880,2.1818040,,https://app.ambmobilitat.cat/stops/busamb:000308,0,,,0
AMB_000309,309,Diagonal - Complex Esportiu Universitari,Marquesina,41.3832680,2.1078740,,https://app.ambmobilitat.cat/stops/busamb:000309,0,,,1
AMB_000310,310,Diagonal - Av Doctor Marañón,Marquesina,41.3842220,2.1116120,,https://app.ambmobilitat.cat/stops/busamb:000310,0,,,0
AMB_000313,313,Pg de Gràcia - Gran Via,Marquesina,41.3901380,2.1675600,,https://app.ambmobilitat.cat/stops/busamb:000313,0,,,0
AMB_000315,315,Pg  de Sant Joan - Diputació,Marquesina,41.3954190,2.1746710,,https://app.ambmobilitat.cat/stops/busamb:000315,0,,,1
AMB_000316,316,Aribau - Gran Via,Marquesina,41.3860420,2.1625330,,https://app.ambmobilitat.cat/stops/busamb:000316,0,,,0
AMB_000317,317,Pl Tetuan - Pg de Sant Joan,Marquesina,41.3954710,2.1752720,,https://app.ambmobilitat.cat/stops/busamb:000317,0,,,0
AMB_000319,319,Entença - Gran Via,Marquesina,41.3783740,2.1523500,,https://app.ambmobilitat.cat/stops/busamb:000319,0,,,0
AMB_000320,320,Tarragona - Parc de Joan Miró,Marquesina,41.3767040,2.1474190,,https://app.ambmobilitat.cat/stops/busamb:000320,0,,,1
AMB_000321,321,Llúria - Gran Via,Marquesina,41.3920090,2.1704230,,https://app.ambmobilitat.cat/stops/busamb:000321,0,,,0
AMB_000324,324,Can Rigal,Pal,41.3759660,2.1059880,,https://app.ambmobilitat.cat/stops/busamb:000324,0,,,0
AMB_000327,327,Pare Manyanet - Virgili,Marquesina,41.4281540,2.1942570,,https://app.ambmobilitat.cat/stops/busamb:000327,0,,,1
AMB_000328,328,Meridiana - Pegaso,Marquesina,41.4254010,2.1864900,,https://app.ambmobilitat.cat/stops/busamb:000328,0,,,1
AMB_000329,329,Sant Adrià Centre,Marquesina,41.4328030,2.2158770,,https://app.ambmobilitat.cat/stops/busamb:000329,0,,,0
AMB_000334,334,Av Granvia - Ctra Antiga del Prat,Marquesina,41.3474480,2.1133600,,https://app.ambmobilitat.cat/stops/busamb:000334,0,,,1
AMB_000335,335,Gran Capità - Av de l'Exèrcit,Marquesina,41.3869820,2.1115890,,https://app.ambmobilitat.cat/stops/busamb:000335,0,,,1
AMB_000336,336,Balmes - Via Augusta,Marquesina,41.4008600,2.1478880,,https://app.ambmobilitat.cat/stops/busamb:000336,0,,,0
AMB_000337,337,València - Muntanya,Marquesina,41.4112260,2.1880890,,https://app.ambmobilitat.cat/stops/busamb:000337,0,,,0
AMB_000342,342,Cementiri de l'Est,Marquesina,41.3942750,2.2023880,,https://app.ambmobilitat.cat/stops/busamb:000342,0,,,0
AMB_000350,350,Av de Vallcarca - Baixada de la Glòria,Marquesina,41.4103850,2.1470100,,https://app.ambmobilitat.cat/stops/busamb:000350,0,,,0
AMB_000352,352,Av de Sant Ildefons - Cirerer,Marquesina,41.3655953,2.0828790,,https://app.ambmobilitat.cat/stops/busamb:000352,0,,,1
AMB_000353,353,Av del Parc - Pl Catalunya,Pal,41.3596550,2.0772410,,https://app.ambmobilitat.cat/stops/busamb:000353,0,,,1
AMB_000354,354,Av del Parc - Ptge de les Delícies,Marquesina,41.3594738,2.0750849,,https://app.ambmobilitat.cat/stops/busamb:000354,0,,,1
AMB_000355,355,Av del Parc - Mossèn Joaquim Palet,Marquesina,41.3591940,2.0729410,,https://app.ambmobilitat.cat/stops/busamb:000355,0,,,1
AMB_000357,357,Av dels Alps - Tanatori,Marquesina,41.3550560,2.0777550,,https://app.ambmobilitat.cat/stops/busamb:000357,0,,,0
AMB_000358,358,Av dels Alps - Ctra d'Esplugues,Marquesina,41.3564330,2.0732550,,https://app.ambmobilitat.cat/stops/busamb:000358,0,,,0
AMB_000360,360,Sant Adrià - Formiga,Marquesina,41.4357930,2.2016280,,https://app.ambmobilitat.cat/stops/busamb:000360,0,,,0
AMB_000362,362,Meridiana - Escòcia,Marquesina,41.4291430,2.1836480,,https://app.ambmobilitat.cat/stops/busamb:000362,0,,,1
AMB_000365,365,Lletres - Dante Alighieri,Marquesina,41.4279360,2.1579150,,https://app.ambmobilitat.cat/stops/busamb:000365,0,,,1
AMB_000366,366,Pl de l'Estatut,Marquesina,41.4305110,2.1552550,,https://app.ambmobilitat.cat/stops/busamb:000366,0,,,0
AMB_000368,368,Trav de Dalt - Torrent de les Flors,Marquesina,41.4104600,2.1566360,,https://app.ambmobilitat.cat/stops/busamb:000368,0,,,0
AMB_000369,369,Pi i Margall - Escorial,Marquesina,41.4066540,2.1631650,,https://app.ambmobilitat.cat/stops/busamb:000369,0,,,1
AMB_000370,370,Pg Maragall - Amílcar,Marquesina,41.4263970,2.1730420,,https://app.ambmobilitat.cat/stops/busamb:000370,0,,,0
AMB_000371,371,Pg Maragall - Sabastida,Marquesina,41.4274790,2.1684630,,https://app.ambmobilitat.cat/stops/busamb:000371,0,,,0
AMB_000373,373,Diagonal - Entença,Marquesina,41.3903400,2.1364050,,https://app.ambmobilitat.cat/stops/busamb:000373,0,,,0
AMB_000377,377,Paral·lel - Rocafort,Marquesina,41.3751080,2.1594000,,https://app.ambmobilitat.cat/stops/busamb:000377,0,,,1
AMB_000378,378,Av de Roma - Entença,Marquesina,41.3820130,2.1462740,,https://app.ambmobilitat.cat/stops/busamb:000378,0,,,0
AMB_000380,380,València - Entença,Marquesina,41.3810480,2.1479480,,https://app.ambmobilitat.cat/stops/busamb:000380,0,,,0
AMB_000381,381,Clot - Biscaia,Marquesina,41.4139880,2.1906310,,https://app.ambmobilitat.cat/stops/busamb:000381,0,,,1
AMB_000382,382,Pujades - Espronceda,Pal,41.4057108,2.2059481,,https://app.ambmobilitat.cat/stops/busamb:000382,0,,,1
AMB_000383,383,Gran Via - Espronceda,Marquesina,41.4116770,2.1976430,,https://app.ambmobilitat.cat/stops/busamb:000383,0,,,1
AMB_000385,385,Gran Via - Bilbao,Marquesina,41.4090450,2.1947620,,https://app.ambmobilitat.cat/stops/busamb:000385,0,,,1
AMB_000387,387,Mallorca - Clot,Marquesina,41.4149170,2.1905140,,https://app.ambmobilitat.cat/stops/busamb:000387,0,,,1
AMB_000389,389,Pl Espanya - FGC,Marquesina,41.3742910,2.1485750,,https://app.ambmobilitat.cat/stops/busamb:000389,0,,,1
AMB_000391,391,Metro Hostafrancs,Marquesina,41.3751530,2.1448950,,https://app.ambmobilitat.cat/stops/busamb:000391,0,,,0
AMB_000392,392,Creu Coberta - Pl Espanya,Marquesina,41.3751200,2.1468540,,https://app.ambmobilitat.cat/stops/busamb:000392,0,,,0
AMB_000395,395,Marquès de Sentmenat - Equador,Marquesina,41.3854210,2.1415610,,https://app.ambmobilitat.cat/stops/busamb:000395,0,,,1
AMB_000396,396,Berlín - Nicaragua,Marquesina,41.3841300,2.1407930,,https://app.ambmobilitat.cat/stops/busamb:000396,0,,,0
AMB_000398,398,Guipúscoa - Julián Besteiro,Marquesina,41.4164810,2.1975700,,https://app.ambmobilitat.cat/stops/busamb:000398,0,,,1
AMB_000399,399,Llull - Selva de Mar,Marquesina,41.4070240,2.2102070,,https://app.ambmobilitat.cat/stops/busamb:000399,0,,,0
AMB_000402,402,Dante Alighieri - Santa Joana d'Arc,Monolit,41.4284540,2.1601010,,https://app.ambmobilitat.cat/stops/busamb:000402,0,,,1
AMB_000406,406,Pg Valldaura - Rambla Caçador,Marquesina,41.4386300,2.1734790,,https://app.ambmobilitat.cat/stops/busamb:000406,0,,,1
AMB_000407,407,Av. Indústria - Walden,Marquesina,41.3804290,2.0669540,,https://app.ambmobilitat.cat/stops/busamb:000407,0,,,1
AMB_000408,408,CAP Sant Just Desvern,Marquesina,41.3825054,2.0698602,,https://app.ambmobilitat.cat/stops/busamb:000408,0,,,0
AMB_000409,409,Sagrera - Parc de la Pegaso,Marquesina,41.4263170,2.1909160,,https://app.ambmobilitat.cat/stops/busamb:000409,0,,,0
AMB_000410,410,Pl Eivissa - Horta,Pal,41.4304820,2.1611010,,https://app.ambmobilitat.cat/stops/busamb:000410,0,,,0
AMB_000413,413,Av Litoral - Trelawny,Marquesina,41.3862298,2.1948028,,https://app.ambmobilitat.cat/stops/busamb:000413,0,,,1
AMB_000414,414,Zoo,Marquesina,41.3875240,2.1952330,,https://app.ambmobilitat.cat/stops/busamb:000414,0,,,1
AMB_000421,421,Gran Via - Farell,Marquesina,41.3719930,2.1449500,,https://app.ambmobilitat.cat/stops/busamb:000421,0,,,1
AMB_000423,423,Gran Vista - Turó de la Rovira,Pal,41.4202120,2.1640080,,https://app.ambmobilitat.cat/stops/busamb:000423,0,,,0
AMB_000428,428,Pg  Valldaura - Fabra i Puig,Marquesina,41.4391980,2.1657600,,https://app.ambmobilitat.cat/stops/busamb:000428,0,,,1
AMB_000431,431,Meridiana - Dublín,Marquesina,41.4274510,2.1851500,,https://app.ambmobilitat.cat/stops/busamb:000431,0,,,1
AMB_000432,432,Meridiana - Parc de Can Dragó,Marquesina,41.4356300,2.1837980,,https://app.ambmobilitat.cat/stops/busamb:000432,0,,,0
AMB_000437,437,Pl del Nen de la Rutlla,Marquesina,41.4185800,2.1719430,,https://app.ambmobilitat.cat/stops/busamb:000437,0,,,1
AMB_000440,440,Via Júlia - Sant Francesc Xavier,Marquesina,41.4415950,2.1775850,,https://app.ambmobilitat.cat/stops/busamb:000440,0,,,1
AMB_000441,441,Gran Vista - Pl de la Mitja Lluna,Marquesina,41.4201260,2.1649190,,https://app.ambmobilitat.cat/stops/busamb:000441,0,,,1
AMB_000444,444,Entença - Floridablanca,Marquesina,41.3756500,2.1559560,,https://app.ambmobilitat.cat/stops/busamb:000444,0,,,0
AMB_000447,447,Av Mare de Déu de Montserrat - França,Marquesina,41.4148300,2.1648910,,https://app.ambmobilitat.cat/stops/busamb:000447,0,,,0
AMB_000449,449,Pg  Zona Franca - Ctra del Prat,Marquesina,41.3620700,2.1374500,,https://app.ambmobilitat.cat/stops/busamb:000449,0,,,0
AMB_000450,450,Pg  Zona Franca - Foneria,Marquesina,41.3595730,2.1396220,,https://app.ambmobilitat.cat/stops/busamb:000450,0,,,0
AMB_000454,454,Sagrera - Martí Molins,Marquesina,41.4230260,2.1910820,,https://app.ambmobilitat.cat/stops/busamb:000454,0,,,0
AMB_000455,455,Meridiana - La Sagrera,Marquesina,41.4219370,2.1867600,,https://app.ambmobilitat.cat/stops/busamb:000455,0,,,1
AMB_000458,458,Pl Pius XII,Marquesina,41.3869640,2.1215530,,https://app.ambmobilitat.cat/stops/busamb:000458,0,,,0
AMB_000459,459,Av Mare de Déu de Montserrat - Gènova,Marquesina,41.4164990,2.1701290,,https://app.ambmobilitat.cat/stops/busamb:000459,0,,,1
AMB_000460,460,Av Mare de Déu de Montserrat - Francesc Alegre,Marquesina,41.4156616,2.1675798,,https://app.ambmobilitat.cat/stops/busamb:000460,0,,,1
AMB_000464,464,Gran Via - Bac de Roda,Marquesina,41.4110850,2.1974280,,https://app.ambmobilitat.cat/stops/busamb:000464,0,,,1
AMB_000466,466,Gran Via - Pl dels Porxos,Marquesina,41.4139050,2.2006180,,https://app.ambmobilitat.cat/stops/busamb:000466,0,,,1
AMB_000469,469,Rambla Prim-Ferrer Bassa,Marquesina,41.4148041,2.2151020,,https://app.ambmobilitat.cat/stops/busamb:000469,0,,,1
AMB_000470,470,Estudis TV3,Marquesina,41.3734790,2.0686620,,https://app.ambmobilitat.cat/stops/busamb:000470,0,,,0
AMB_000471,471,Aiguablava - Via Favència,Marquesina,41.4474490,2.1807600,,https://app.ambmobilitat.cat/stops/busamb:000471,0,,,1
AMB_000472,472,Pl. Europa - Fira,Marquesina,41.3574190,2.1264040,,https://app.ambmobilitat.cat/stops/busamb:000472,0,,,0
AMB_000475,475,Pg Maragall - Dante Alighieri,Monolit,41.4286880,2.1628470,,https://app.ambmobilitat.cat/stops/busamb:000475,0,,,1
AMB_000476,476,Rambla del Carmel,Marquesina,41.4260370,2.1583130,,https://app.ambmobilitat.cat/stops/busamb:000476,0,,,1
AMB_000477,477,Rambla del Carmel - Dante Alighieri,Marquesina,41.4272000,2.1572410,,https://app.ambmobilitat.cat/stops/busamb:000477,0,,,0
AMB_000479,479,Av Madrid - Carles III,Marquesina,41.3789310,2.1284680,,https://app.ambmobilitat.cat/stops/busamb:000479,0,,,1
AMB_000481,481,Maria Cristina - Carles III,Marquesina,41.3893260,2.1280280,,https://app.ambmobilitat.cat/stops/busamb:000481,0,,,1
AMB_000483,483,Diagonal - Numància,Marquesina,41.3895412,2.1316385,,https://app.ambmobilitat.cat/stops/busamb:000483,0,,,1
AMB_000487,487,Mitre - Prat de la Riba,Marquesina,41.3932740,2.1313010,,https://app.ambmobilitat.cat/stops/busamb:000487,0,,,0
AMB_000492,492,Diagonal - Av Joan XXIII,Marquesina,41.3869320,2.1229850,,https://app.ambmobilitat.cat/stops/busamb:000492,0,,,1
AMB_000493,493,Diagonal - Gran Via Carles III,Marquesina,41.3875890,2.1255770,,https://app.ambmobilitat.cat/stops/busamb:000493,0,,,1
AMB_000494,494,Diagonal - Gandesa,Marquesina,41.3884430,2.1289340,,https://app.ambmobilitat.cat/stops/busamb:000494,0,,,1
AMB_000495,495,Av Mare de Déu de Montserrat - Cartagena,Marquesina,41.4160510,2.1698920,,https://app.ambmobilitat.cat/stops/busamb:000495,0,,,1
AMB_000496,496,Pg Torras i Bages - Residència,Marquesina,41.4394150,2.1909090,,https://app.ambmobilitat.cat/stops/busamb:000496,0,,,1
AMB_000497,497,Alcántara - Garigliano,Pal,41.4455210,2.1724300,,https://app.ambmobilitat.cat/stops/busamb:000497,0,,,1
AMB_000498,498,Glòries,Pal,41.4061866,2.1906179,,https://app.ambmobilitat.cat/stops/busamb:000498,0,,,0
AMB_000499,499,Gran Via - Padilla,Pal,41.4003890,2.1832670,,https://app.ambmobilitat.cat/stops/busamb:000499,0,,,0
AMB_000503,503,Metro Tetuan,Monolit,41.3937620,2.1736660,,https://app.ambmobilitat.cat/stops/busamb:000503,0,,,1
AMB_000504,504,Mallorca - Girona,Marquesina,41.3979490,2.1679220,,https://app.ambmobilitat.cat/stops/busamb:000504,0,,,0
AMB_000505,505,Trav de Dalt - La Granja,Marquesina,41.4088410,2.1535260,,https://app.ambmobilitat.cat/stops/busamb:000505,0,,,0
AMB_000506,506,Extremadura - Ctra de Mataró,Marquesina,41.4235470,2.2109980,,https://app.ambmobilitat.cat/stops/busamb:000506,0,,,1
AMB_000510,510,Meridiana - La Sagrera,Marquesina,41.4214020,2.1870900,,https://app.ambmobilitat.cat/stops/busamb:000510,0,,,1
AMB_000511,511,Meridiana - Cardenal Tedeschini,Marquesina,41.4250200,2.1863410,,https://app.ambmobilitat.cat/stops/busamb:000511,0,,,1
AMB_000515,515,Balmes - Pàdua,Pal,41.4030500,2.1439590,,https://app.ambmobilitat.cat/stops/busamb:000515,0,,,1
AMB_000516,516,Carles III - Numància,Marquesina,41.3916860,2.1292440,,https://app.ambmobilitat.cat/stops/busamb:000516,0,,,0
AMB_000517,517,Balmes - Pl Kennedy,Marquesina,41.4092360,2.1372630,,https://app.ambmobilitat.cat/stops/busamb:000517,0,,,0
AMB_000519,519,Balmes - Pl Joaquim Folguera,Marquesina,41.4054400,2.1392260,,https://app.ambmobilitat.cat/stops/busamb:000519,0,,,1
AMB_000524,524,Diagonal - Ganduxer,Marquesina,41.3916500,2.1400230,,https://app.ambmobilitat.cat/stops/busamb:000524,0,,,0
AMB_000526,526,Ganduxer - Alacant,Pal,41.4001860,2.1335740,,https://app.ambmobilitat.cat/stops/busamb:000526,0,,,0
AMB_000527,527,Ganduxer - Emancipació,Pal,41.4031530,2.1312770,,https://app.ambmobilitat.cat/stops/busamb:000527,0,,,0
AMB_000528,528,Via Augusta - Alt de Gironella,Marquesina,41.3976990,2.1336820,,https://app.ambmobilitat.cat/stops/busamb:000528,0,,,0
AMB_000529,529,Mitre - Mandri,Marquesina,41.4006500,2.1353670,,https://app.ambmobilitat.cat/stops/busamb:000529,0,,,0
AMB_000531,531,Pg Bonanova - Anglí,Marquesina,41.4009770,2.1234470,,https://app.ambmobilitat.cat/stops/busamb:000531,0,,,0
AMB_000532,532,Pg Bonanova - Escoles Pies,Marquesina,41.4033660,2.1277230,,https://app.ambmobilitat.cat/stops/busamb:000532,0,,,0
AMB_000534,534,Pl Alfonso Comín - Av República Argentina,Marquesina,41.4144960,2.1382620,,https://app.ambmobilitat.cat/stops/busamb:000534,0,,,0
AMB_000536,536,Av Barcelona - Mare de Déu de Montserrat,Marquesina,41.3680820,2.0678610,,https://app.ambmobilitat.cat/stops/busamb:000536,0,,,0
AMB_000537,537,Av Barcelona - Gran Capità,Marquesina,41.3681580,2.0676590,,https://app.ambmobilitat.cat/stops/busamb:000537,0,,,0
AMB_000540,540,Gran Via - Agricultura,Marquesina,41.4159680,2.2033700,,https://app.ambmobilitat.cat/stops/busamb:000540,0,,,1
AMB_000541,541,Guipúscoa - Treball,Marquesina,41.4181600,2.1998040,,https://app.ambmobilitat.cat/stops/busamb:000541,0,,,1
AMB_000542,542,Guipúscoa - Cantàbria,Marquesina,41.4200630,2.2017540,,https://app.ambmobilitat.cat/stops/busamb:000542,0,,,1
AMB_000544,544,Gran Vista - Doctor Bové,Pal,41.4190040,2.1580390,,https://app.ambmobilitat.cat/stops/busamb:000544,0,,,1
AMB_000545,545,Gran Vista - IES Ferran Tallada,Marquesina,41.4207910,2.1616670,,https://app.ambmobilitat.cat/stops/busamb:000545,0,,,0
AMB_000546,546,IES Ferran Tallada,Pal,41.4206920,2.1618410,,https://app.ambmobilitat.cat/stops/busamb:000546,0,,,1
AMB_000548,548,Zona Universitària - Facultat d'Economia i Empresa,Marquesina,41.3846950,2.1110240,,https://app.ambmobilitat.cat/stops/busamb:000548,0,,,1
AMB_000554,554,Sor Eulàlia d'Anzizu - González Tablas,Marquesina,41.3870350,2.1086660,,https://app.ambmobilitat.cat/stops/busamb:000554,0,,,0
AMB_000557,557,Lesseps - Av Riera de Cassoles,Marquesina,41.4061180,2.1498360,,https://app.ambmobilitat.cat/stops/busamb:000557,0,,,1
AMB_000559,559,Pl Molina,Marquesina,41.4014070,2.1473770,,https://app.ambmobilitat.cat/stops/busamb:000559,0,,,0
AMB_000560,560,Villarroel - Gran Via,Marquesina,41.3832910,2.1592010,,https://app.ambmobilitat.cat/stops/busamb:000560,0,,,0
AMB_000561,561,Pg de Gràcia - Casp,Marquesina,41.3889120,2.1692510,,https://app.ambmobilitat.cat/stops/busamb:000561,0,,,1
AMB_000562,562,Balmes - Gran Via,Marquesina,41.3876130,2.1647360,,https://app.ambmobilitat.cat/stops/busamb:000562,0,,,0
AMB_000564,564,Muntaner - Diputació,Marquesina,41.3861400,2.1599510,,https://app.ambmobilitat.cat/stops/busamb:000564,0,,,0
AMB_000565,565,Rambla Prim - Bernat Metge,Monolit,41.4176748,2.2112789,,https://app.ambmobilitat.cat/stops/busamb:000565,0,,,0
AMB_000567,567,Bilbao - Andrade,Pal,41.4100730,2.1936910,,https://app.ambmobilitat.cat/stops/busamb:000567,0,,,0
AMB_000569,569,Extremadura - Pl Clementina Arderiu,Marquesina,41.4224870,2.2112720,,https://app.ambmobilitat.cat/stops/busamb:000569,0,,,1
AMB_000570,570,Lepant - Plaça de Toros Monumental,Marquesina,41.4004860,2.1818560,,https://app.ambmobilitat.cat/stops/busamb:000570,0,,,1
AMB_000574,574,Rambla Prim - Andrade (Besòs),Marquesina,41.4200100,2.2072570,,https://app.ambmobilitat.cat/stops/busamb:000574,0,,,0
AMB_000577,577,Metro Pg de Gràcia,Marquesina,41.3899190,2.1675200,,https://app.ambmobilitat.cat/stops/busamb:000577,0,,,1
AMB_000578,578,Bac de Roda - Bolívia,Marquesina,41.4097630,2.2011330,,https://app.ambmobilitat.cat/stops/busamb:000578,0,,,0
AMB_000581,581,Parc de Bellvitge,Marquesina,41.3499120,2.1112100,,https://app.ambmobilitat.cat/stops/busamb:000581,0,,,1
AMB_000584,584,Metro Pl de Sants,Marquesina,41.3753120,2.1368100,,https://app.ambmobilitat.cat/stops/busamb:000584,0,,,0
AMB_000585,585,La Granja,Pal,41.3178820,2.0916170,,https://app.ambmobilitat.cat/stops/busamb:000585,0,,,1
AMB_000586,586,Pg  Valldaura - Mercat Guineueta,Marquesina,41.4390120,2.1697280,,https://app.ambmobilitat.cat/stops/busamb:000586,0,,,1
AMB_000588,588,Sant Adrià - Bon Pastor,Marquesina,41.4364760,2.2078960,,https://app.ambmobilitat.cat/stops/busamb:000588,0,,,1
AMB_000590,590,Can Clota,Marquesina,41.3770900,2.0928590,,https://app.ambmobilitat.cat/stops/busamb:000590,0,,,0
AMB_000591,591,Av d'Esplugues - Hospital Sant Joan de Déu,Marquesina,41.3849240,2.1039730,,https://app.ambmobilitat.cat/stops/busamb:000591,0,,,1
AMB_000592,592,Laureà Miró - Josep Campreciós,Marquesina,41.3774850,2.0866460,,https://app.ambmobilitat.cat/stops/busamb:000592,0,,,0
AMB_000595,595,Av. Catalunya,Marquesina,41.4286638,2.2231842,,https://app.ambmobilitat.cat/stops/busamb:000595,0,,,1
AMB_000597,597,Ctra de L'Hospitalet - Av Fama,Pal,41.3538200,2.0799240,,https://app.ambmobilitat.cat/stops/busamb:000597,0,,,0
AMB_000598,598,Parc de Can Mercader,Marquesina,41.3557830,2.0845280,,https://app.ambmobilitat.cat/stops/busamb:000598,0,,,1
AMB_000599,599,Ctra. de l'Hospitalet - Camí dels Acumuladors,Marquesina,41.3548658,2.0821742,,https://app.ambmobilitat.cat/stops/busamb:000599,0,,,1
AMB_000603,603,Lima - Ciutat d'Asunción,Marquesina,41.4391980,2.2007920,,https://app.ambmobilitat.cat/stops/busamb:000603,0,,,1
AMB_000605,605,Pg Vall d'Hebron - Av de Vallcarca,Marquesina,41.4184320,2.1394150,,https://app.ambmobilitat.cat/stops/busamb:000605,0,,,1
AMB_000607,607,Pg Vall d'Hebron - Velòdrom,Marquesina,41.4371900,2.1497350,,https://app.ambmobilitat.cat/stops/busamb:000607,0,,,0
AMB_000608,608,Av. Anselm Clavé - Enric Borràs,Marquesina,41.3327932,2.0976763,,https://app.ambmobilitat.cat/stops/busamb:000608,0,,,0
AMB_000609,609,Rubió i Ors - Sant Isidre,Marquesina,41.3525161,2.0735834,,https://app.ambmobilitat.cat/stops/busamb:000609,0,,,1
AMB_000610,610,Santaló - Plató,Pal,41.3997910,2.1407170,,https://app.ambmobilitat.cat/stops/busamb:000610,0,,,0
AMB_000611,611,Pl d'Adrià,Pal,41.4009950,2.1392400,,https://app.ambmobilitat.cat/stops/busamb:000611,0,,,1
AMB_000612,612,Muntaner - Pl Bonanova,Marquesina,41.4057920,2.1341700,,https://app.ambmobilitat.cat/stops/busamb:000612,0,,,0
AMB_000613,613,Muntaner - Mitre,Marquesina,41.4030550,2.1375400,,https://app.ambmobilitat.cat/stops/busamb:000613,0,,,0
AMB_000614,614,Pg Vall d'Hebron - Av Can Marcet,Marquesina,41.4356250,2.1483450,,https://app.ambmobilitat.cat/stops/busamb:000614,0,,,0
AMB_000615,615,Campoamor - Av Estatut de Catalunya,Pal,41.4351310,2.1543730,,https://app.ambmobilitat.cat/stops/busamb:000615,0,,,0
AMB_000616,616,Campoamor - Rectoria,Marquesina,41.4329190,2.1580510,,https://app.ambmobilitat.cat/stops/busamb:000616,0,,,0
AMB_000622,622,Pg Bonanova,Marquesina,41.3999690,2.1233450,,https://app.ambmobilitat.cat/stops/busamb:000622,0,,,0
AMB_000623,623,Palamós - Sa Tuna,Marquesina,41.4514910,2.1876070,,https://app.ambmobilitat.cat/stops/busamb:000623,0,,,0
AMB_000624,624,Palamós - Plaça de l'Aigua,Marquesina,41.4511280,2.1873990,,https://app.ambmobilitat.cat/stops/busamb:000624,0,,,0
AMB_000626,626,Av Mare de Déu de Montserrat - La Bisbal,Marquesina,41.4179880,2.1716960,,https://app.ambmobilitat.cat/stops/busamb:000626,0,,,1
AMB_000627,627,Londres - Calàbria,Marquesina,41.3884730,2.1440360,,https://app.ambmobilitat.cat/stops/busamb:000627,0,,,1
AMB_000628,628,París - Josep Tarradellas,Marquesina,41.3859910,2.1431900,,https://app.ambmobilitat.cat/stops/busamb:000628,0,,,1
AMB_000629,629,Numància - Berlín,Marquesina,41.3827590,2.1394510,,https://app.ambmobilitat.cat/stops/busamb:000629,0,,,0
AMB_000630,630,Av de Sarrià - Josep Tarradellas,Pal,41.3904035,2.1448074,,https://app.ambmobilitat.cat/stops/busamb:000630,0,,,0
AMB_000632,632,Fructuós Gelabert - Sant Martí de l'Erm,Marquesina,41.3727790,2.0674270,,https://app.ambmobilitat.cat/stops/busamb:000632,0,,,1
AMB_000634,634,Lepant - Sant Antoni Maria Claret,Marquesina,41.4082050,2.1715700,,https://app.ambmobilitat.cat/stops/busamb:000634,0,,,0
AMB_000635,635,Dos de Maig - Sant Antoni Maria Claret,Marquesina,41.4115700,2.1759790,,https://app.ambmobilitat.cat/stops/busamb:000635,0,,,0
AMB_000637,637,Walden,Marquesina,41.3798537,2.0670176,,https://app.ambmobilitat.cat/stops/busamb:000637,0,,,0
AMB_000638,638,Av de la Ribera - Mercat Municipal,Marquesina,41.4849880,2.1909710,,https://app.ambmobilitat.cat/stops/busamb:000638,0,,,1
AMB_000639,639,Av Mossèn Joaquim Castellví - Rbla Països Catalans,Pal,41.4875100,2.1883000,,https://app.ambmobilitat.cat/stops/busamb:000639,0,,,1
AMB_000640,640,Rambla dels Països Catalans - Torras i Bages,Marquesina,41.4893690,2.1867090,,https://app.ambmobilitat.cat/stops/busamb:000640,0,,,1
AMB_000641,641,Gran de Sant Andreu - Fabra i Puig,Marquesina,41.4293270,2.1899930,,https://app.ambmobilitat.cat/stops/busamb:000641,0,,,0
AMB_000642,642,La Miranda - Pl Catalunya,Marquesina,41.3600200,2.0782320,,https://app.ambmobilitat.cat/stops/busamb:000642,0,,,0
AMB_000643,643,Ctra d'Esplugues - Les Garrigues,Marquesina,41.3675860,2.0790590,,https://app.ambmobilitat.cat/stops/busamb:000643,0,,,1
AMB_000644,644,Av de Cornellà - Milà i Pi,Marquesina,41.3718560,2.0829280,,https://app.ambmobilitat.cat/stops/busamb:000644,0,,,0
AMB_000645,645,Av de Cornellà - Gall,Marquesina,41.3697160,2.0808050,,https://app.ambmobilitat.cat/stops/busamb:000645,0,,,1
AMB_000647,647,Rambla Marina - Av Granvia,Marquesina,41.3497550,2.1119140,,https://app.ambmobilitat.cat/stops/busamb:000647,0,,,1
AMB_000648,648,Escola La Marina,Marquesina,41.3525320,2.1094170,,https://app.ambmobilitat.cat/stops/busamb:000648,0,,,1
AMB_000649,649,Pg Maragall - Mossèn Josep  Bundó,Marquesina,41.4273680,2.1681420,,https://app.ambmobilitat.cat/stops/busamb:000649,0,,,1
AMB_000650,650,Pl Catalana - Mascaró,Pal,41.4218470,2.1731510,,https://app.ambmobilitat.cat/stops/busamb:000650,0,,,0
AMB_000652,652,Pg Maragall - Amílcar,Marquesina,41.4262750,2.1729630,,https://app.ambmobilitat.cat/stops/busamb:000652,0,,,1
AMB_000659,659,Ctra d'Esplugues - Can Maragall,Marquesina,41.3561360,2.0716820,,https://app.ambmobilitat.cat/stops/busamb:000659,0,,,1
AMB_000661,661,Aragó - Independència,Marquesina,41.4072510,2.1848620,,https://app.ambmobilitat.cat/stops/busamb:000661,0,,,1
AMB_000662,662,Marina - Pl dels Voluntaris,Marquesina,41.3883851,2.1956165,,https://app.ambmobilitat.cat/stops/busamb:000662,0,,,1
AMB_000663,663,Can Peixauet,Marquesina,41.4447200,2.2108150,,https://app.ambmobilitat.cat/stops/busamb:000663,0,,,1
AMB_000666,666,Banús - Metro Santa Rosa,Marquesina,41.4463240,2.2140530,,https://app.ambmobilitat.cat/stops/busamb:000666,0,,,1
AMB_000667,667,Via Laietana - Correus,Pal,41.3831472,2.1797059,,https://app.ambmobilitat.cat/stops/busamb:000667,0,,,0
AMB_000682,682,Cementiri de l'Est,Marquesina,41.3944270,2.2015770,,https://app.ambmobilitat.cat/stops/busamb:000682,0,,,0
AMB_000697,697,Pallars - Zamora,Marquesina,41.3959740,2.1909150,,https://app.ambmobilitat.cat/stops/busamb:000697,0,,,0
AMB_000698,698,Av Icària - Joan Miró,Marquesina,41.3904230,2.1963110,,https://app.ambmobilitat.cat/stops/busamb:000698,0,,,0
AMB_000699,699,Benet Mateu - Manuel de Falla,Pal,41.3938530,2.1262400,,https://app.ambmobilitat.cat/stops/busamb:000699,0,,,1
AMB_000700,700,Pg Calvell - Rambla del Poblenou,Marquesina,41.3974470,2.2065190,,https://app.ambmobilitat.cat/stops/busamb:000700,0,,,0
AMB_000701,701,Els Vergós,Marquesina,41.3970760,2.1270030,,https://app.ambmobilitat.cat/stops/busamb:000701,0,,,0
AMB_000702,702,Pl Artós,Marquesina,41.3955470,2.1256190,,https://app.ambmobilitat.cat/stops/busamb:000702,0,,,1
AMB_000703,703,Ronda Sant Antoni - Pl Goya,Marquesina,41.3830440,2.1637750,,https://app.ambmobilitat.cat/stops/busamb:000703,0,,,1
AMB_000704,704,Parc de la Vall d'Hebron,Marquesina,41.4313120,2.1457280,,https://app.ambmobilitat.cat/stops/busamb:000704,0,,,1
AMB_000705,705,Meridiana - Josep Estivill,Marquesina,41.4179446,2.1870816,,https://app.ambmobilitat.cat/stops/busamb:000705,0,,,1
AMB_000707,707,Sants - Badal,Pal,41.3754180,2.1318800,,https://app.ambmobilitat.cat/stops/busamb:000707,0,,,0
AMB_000708,708,Pl de Sants,Pal,41.3753680,2.1343170,,https://app.ambmobilitat.cat/stops/busamb:000708,0,,,1
AMB_000712,712,Av de l'Exèrcit - Trias i Giró,Marquesina,41.3856740,2.1111800,,https://app.ambmobilitat.cat/stops/busamb:000712,0,,,0
AMB_000716,716,Gran Via - Bilbao,Marquesina,41.4096050,2.1948690,,https://app.ambmobilitat.cat/stops/busamb:000716,0,,,1
AMB_000717,717,Gran Via - Selva de Mar,Marquesina,41.4136690,2.2008840,,https://app.ambmobilitat.cat/stops/busamb:000717,0,,,1
AMB_000722,722,Paral·lel - Cabanes,Marquesina,41.3747940,2.1706350,,https://app.ambmobilitat.cat/stops/busamb:000722,0,,,1
AMB_000723,723,Paral·lel - Drassanes,Marquesina,41.3745492,2.1745576,,https://app.ambmobilitat.cat/stops/busamb:000723,0,,,1
AMB_000725,725,Mina de la Ciutat - Les Torres,Pal,41.4473560,2.1742680,,https://app.ambmobilitat.cat/stops/busamb:000725,0,,,1
AMB_000727,727,CAP Horta,Marquesina,41.4291390,2.1575990,,https://app.ambmobilitat.cat/stops/busamb:000727,0,,,1
AMB_000728,728,Balmes - Almirall Oquendo,Pal,41.4311460,2.2077400,,https://app.ambmobilitat.cat/stops/busamb:000728,0,,,0
AMB_000729,729,Balmes - Alarcón,Pal,41.4296280,2.2108680,,https://app.ambmobilitat.cat/stops/busamb:000729,0,,,0
AMB_000731,731,Pg Torras i Bages - Els Segadors,Marquesina,41.4369760,2.1912780,,https://app.ambmobilitat.cat/stops/busamb:000731,0,,,0
AMB_000740,740,Encants de Sant Adrià,Marquesina,41.4303153,2.2214526,,https://app.ambmobilitat.cat/stops/busamb:000740,0,,,1
AMB_000742,742,Av de la Ribera - Pg Rocamora,Pal,41.4848150,2.1908390,,https://app.ambmobilitat.cat/stops/busamb:000742,0,,,1
AMB_000743,743,Bogatell - Jaume I,Pal,41.4820270,2.1889420,,https://app.ambmobilitat.cat/stops/busamb:000743,0,,,1
AMB_000748,748,Av de Cornellà - Pl Sardana,Marquesina,41.3725450,2.0839340,,https://app.ambmobilitat.cat/stops/busamb:000748,0,,,1
AMB_000749,749,Santa Rosalia - Castellbisbal,Pal,41.4207540,2.1437300,,https://app.ambmobilitat.cat/stops/busamb:000749,0,,,1
AMB_000752,752,Aiguablava - Pedrosa,Marquesina,41.4489230,2.1821430,,https://app.ambmobilitat.cat/stops/busamb:000752,0,,,1
AMB_000753,753,Aiguablava - La Fosca,Marquesina,41.4483960,2.1817630,,https://app.ambmobilitat.cat/stops/busamb:000753,0,,,1
AMB_000754,754,Pg Vall d'Hebron - L'Arrabassada,Marquesina,41.4186230,2.1390620,,https://app.ambmobilitat.cat/stops/busamb:000754,0,,,1
AMB_000755,755,Pg Valldaura - Guineueta,Marquesina,41.4394370,2.1653840,,https://app.ambmobilitat.cat/stops/busamb:000755,0,,,1
AMB_000766,766,Diagonal - Pl Pius XII,Marquesina,41.3872380,2.1226150,,https://app.ambmobilitat.cat/stops/busamb:000766,0,,,0
AMB_000769,769,Via Favència - Rambla Caçador,Marquesina,41.4414770,2.1670940,,https://app.ambmobilitat.cat/stops/busamb:000769,0,,,0
AMB_000770,770,Paral·lel - Margarit,Marquesina,41.3748660,2.1645060,,https://app.ambmobilitat.cat/stops/busamb:000770,0,,,1
AMB_000771,771,Ca n'Oliveres,Marquesina,41.3765485,2.0976571,,https://app.ambmobilitat.cat/stops/busamb:000771,0,,,0
AMB_000772,772,Doctor Pi i Molist - Pl Virrei Amat,Marquesina,41.4308410,2.1746200,,https://app.ambmobilitat.cat/stops/busamb:000772,0,,,1
AMB_000773,773,Doctor Pi i Molist - Orduña,Marquesina,41.4334210,2.1730550,,https://app.ambmobilitat.cat/stops/busamb:000773,0,,,0
AMB_000774,774,Gran Via - Vilamarí,Pal,41.3774170,2.1519190,,https://app.ambmobilitat.cat/stops/busamb:000774,0,,,1
AMB_000776,776,Sepúlveda - Av Mistral,Marquesina,41.3756830,2.1524090,,https://app.ambmobilitat.cat/stops/busamb:000776,0,,,0
AMB_000777,777,Av Roma - Tarragona,Marquesina,41.3804722,2.1436143,,https://app.ambmobilitat.cat/stops/busamb:000777,0,,,0
AMB_000778,778,Av Sant Ramon Nonat - Cardenal Reig,Marquesina,41.3774340,2.1164460,,https://app.ambmobilitat.cat/stops/busamb:000778,0,,,1
AMB_000780,780,Trafalgar - Bruc,Marquesina,41.3897150,2.1770010,,https://app.ambmobilitat.cat/stops/busamb:000780,0,,,0
AMB_000783,783,Sant Antoni Maria Claret - Lepant,Marquesina,41.4083120,2.1704000,,https://app.ambmobilitat.cat/stops/busamb:000783,0,,,0
AMB_000784,784,València - Lepant,Marquesina,41.4032080,2.1774170,,https://app.ambmobilitat.cat/stops/busamb:000784,0,,,1
AMB_000785,785,Gran Via - Padilla,Marquesina,41.4005560,2.1826950,,https://app.ambmobilitat.cat/stops/busamb:000785,0,,,0
AMB_000786,786,Joan XXIII - Andreu Soler,Marquesina,41.4326982,2.2183254,,https://app.ambmobilitat.cat/stops/busamb:000786,0,,,0
AMB_000787,787,Escorial - Legalitat,Marquesina,41.4079440,2.1607910,,https://app.ambmobilitat.cat/stops/busamb:000787,0,,,1
AMB_000788,788,Pl Espanya - Paral·lel,Marquesina,41.3749049,2.1505976,,https://app.ambmobilitat.cat/stops/busamb:000788,0,,,1
AMB_000793,793,Rambla del Carmel,Marquesina,41.4257500,2.1575620,,https://app.ambmobilitat.cat/stops/busamb:000793,0,,,1
AMB_000795,795,Gran Via - Llacuna,Marquesina,41.4061543,2.1908949,,https://app.ambmobilitat.cat/stops/busamb:000795,0,,,1
AMB_000803,803,Pg Verdum - Pl Jardins d'Alfàbia,Marquesina,41.4369410,2.1734840,,https://app.ambmobilitat.cat/stops/busamb:000803,0,,,0
AMB_000804,804,Via Júlia - Font d'en Canyelles,Marquesina,41.4404210,2.1762530,,https://app.ambmobilitat.cat/stops/busamb:000804,0,,,1
AMB_000805,805,Pg Valldaura - Font d'En Canyelles,Marquesina,41.4390350,2.1791620,,https://app.ambmobilitat.cat/stops/busamb:000805,0,,,0
AMB_000806,806,Mercat de la Guineueta,Marquesina,41.4387910,2.1700020,,https://app.ambmobilitat.cat/stops/busamb:000806,0,,,1
AMB_000807,807,Pg  Valldaura - Pg  de Verdum,Marquesina,41.4384340,2.1734950,,https://app.ambmobilitat.cat/stops/busamb:000807,0,,,1
AMB_000808,808,Via Júlia - Pl Francesc Layret,Marquesina,41.4425170,2.1778660,,https://app.ambmobilitat.cat/stops/busamb:000808,0,,,0
AMB_000810,810,Via Júlia - Ptge Quintana,Monolit,41.4450000,2.1789410,,https://app.ambmobilitat.cat/stops/busamb:000810,0,,,0
AMB_000813,813,Via Favència - Almansa,Marquesina,41.4448830,2.1746260,,https://app.ambmobilitat.cat/stops/busamb:000813,0,,,1
AMB_000814,814,Villarroel - Buenos Aires,Marquesina,41.3920530,2.1475970,,https://app.ambmobilitat.cat/stops/busamb:000814,0,,,0
AMB_000817,817,Via Favència - Biblioteca Les Roquetes,Marquesina,41.4458530,2.1774820,,https://app.ambmobilitat.cat/stops/busamb:000817,0,,,1
AMB_000818,818,Pg Valldaura - Escultor Ordóñez,Marquesina,41.4388950,2.1792710,,https://app.ambmobilitat.cat/stops/busamb:000818,0,,,0
AMB_000819,819,Pg Verdum - Pl de la República,Marquesina,41.4377560,2.1740510,,https://app.ambmobilitat.cat/stops/busamb:000819,0,,,1
AMB_000820,820,Metro Maragall,Marquesina,41.4245180,2.1761250,,https://app.ambmobilitat.cat/stops/busamb:000820,0,,,1
AMB_000821,821,Antoni Martín i Sánchez,Marquesina,41.3169540,2.0849710,,https://app.ambmobilitat.cat/stops/busamb:000821,0,,,1
AMB_000822,822,Diagonal - Av de Sarrià,Marquesina,41.3913320,2.1403100,,https://app.ambmobilitat.cat/stops/busamb:000822,0,,,0
AMB_000823,823,Av Mare de Déu de Montserrat - Periodistes,Marquesina,41.4216820,2.1741200,,https://app.ambmobilitat.cat/stops/busamb:000823,0,,,0
AMB_000827,827,Llull - Bilbao,Marquesina,41.4018910,2.2034310,,https://app.ambmobilitat.cat/stops/busamb:000827,0,,,1
AMB_000828,828,Guipúscoa - Bilbao,Marquesina,41.4123510,2.1920440,,https://app.ambmobilitat.cat/stops/busamb:000828,0,,,0
AMB_000830,830,Llull - Ciutat de Granada,Marquesina,41.3984850,2.1989130,,https://app.ambmobilitat.cat/stops/busamb:000830,0,,,0
AMB_000831,831,Collblanc - Cardenal Reig,Pal,41.3757600,2.1146480,,https://app.ambmobilitat.cat/stops/busamb:000831,0,,,0
AMB_000835,835,Pujades - Àlaba,Marquesina,41.3961500,2.1932870,,https://app.ambmobilitat.cat/stops/busamb:000835,0,,,0
AMB_000838,838,Llorenç Serra,Marquesina,41.4504580,2.2051780,,https://app.ambmobilitat.cat/stops/busamb:000838,0,,,1
AMB_000839,839,Bruc - Provença,Marquesina,41.3971890,2.1656260,,https://app.ambmobilitat.cat/stops/busamb:000839,0,,,0
AMB_000841,841,Llúria - Mallorca,Marquesina,41.3955760,2.1657060,,https://app.ambmobilitat.cat/stops/busamb:000841,0,,,0
AMB_000842,842,Aribau - Mallorca,Marquesina,41.3896870,2.1577100,,https://app.ambmobilitat.cat/stops/busamb:000842,0,,,0
AMB_000843,843,Mercabarna,Marquesina,41.3311740,2.1155450,,https://app.ambmobilitat.cat/stops/busamb:000843,0,,,1
AMB_000844,844,Carrer número 6 - Carrer F,Marquesina,41.3249910,2.1181230,,https://app.ambmobilitat.cat/stops/busamb:000844,0,,,1
AMB_000845,845,Pg Mare de Déu del Coll - Ramon Rocafull,Pal,41.4248360,2.1521150,,https://app.ambmobilitat.cat/stops/busamb:000845,0,,,1
AMB_000847,847,Vallcarca,Marquesina,41.4130260,2.1443710,,https://app.ambmobilitat.cat/stops/busamb:000847,0,,,0
AMB_000848,848,Pg Mare de Déu del Coll - Cartago,Pal,41.4154290,2.1463800,,https://app.ambmobilitat.cat/stops/busamb:000848,0,,,0
AMB_000849,849,Pg Mare de Déu del Coll - Baixada de Sant Marià,Pal,41.4178320,2.1477390,,https://app.ambmobilitat.cat/stops/busamb:000849,0,,,1
AMB_000850,850,Pg Mare de Déu del Coll - Santuari,Pal,41.4201490,2.1491160,,https://app.ambmobilitat.cat/stops/busamb:000850,0,,,1
AMB_000851,851,Pg Mare de Déu del Coll - Santuari,Marquesina,41.4200740,2.1489180,,https://app.ambmobilitat.cat/stops/busamb:000851,0,,,0
AMB_000852,852,Pg Mare de Déu del Coll - Baixada Solanell,Pal,41.4176030,2.1475530,,https://app.ambmobilitat.cat/stops/busamb:000852,0,,,0
AMB_000853,853,Pg Mare de Déu del Coll - Pl Flandes,Pal,41.4153060,2.1459240,,https://app.ambmobilitat.cat/stops/busamb:000853,0,,,0
AMB_000854,854,Riera Blanca - Onze de Setembre,Marquesina,41.3773220,2.1214550,,https://app.ambmobilitat.cat/stops/busamb:000854,0,,,0
AMB_000855,855,Vallespir - Jardí de Magalí,Marquesina,41.3839070,2.1339900,,https://app.ambmobilitat.cat/stops/busamb:000855,0,,,1
AMB_000856,856,Arizala - Av Madrid,Marquesina,41.3764240,2.1251040,,https://app.ambmobilitat.cat/stops/busamb:000856,0,,,1
AMB_000859,859,Sant Antoni Maria Claret - Rambla Volart,Marquesina,41.4152690,2.1796680,,https://app.ambmobilitat.cat/stops/busamb:000859,0,,,0
AMB_000866,866,Capità Arenas - Pg Manuel Girona,Marquesina,41.3908350,2.1257770,,https://app.ambmobilitat.cat/stops/busamb:000866,0,,,0
AMB_000867,867,Pg  Zona Franca - Mineria,Marquesina,41.3623030,2.1376400,,https://app.ambmobilitat.cat/stops/busamb:000867,0,,,1
AMB_000868,868,La Campana,Marquesina,41.3680250,2.1399840,,https://app.ambmobilitat.cat/stops/busamb:000868,0,,,1
AMB_000871,871,Mallorca - Meridiana,Marquesina,41.4125240,2.1873590,,https://app.ambmobilitat.cat/stops/busamb:000871,0,,,0
AMB_000873,873,Fabra i Puig - Gran de Sant Andreu,Pal,41.4302020,2.1891560,,https://app.ambmobilitat.cat/stops/busamb:000873,0,,,0
AMB_000874,874,Fabra i Puig - Llenguadoc,Marquesina,41.4302510,2.1854830,,https://app.ambmobilitat.cat/stops/busamb:000874,0,,,0
AMB_000877,877,Ctra de Ribes - Meridiana,Pal,41.4494590,2.1897440,,https://app.ambmobilitat.cat/stops/busamb:000877,0,,,0
AMB_000878,878,Av Rasos de Peguera - Meridiana,Pal,41.4621480,2.1796740,,https://app.ambmobilitat.cat/stops/busamb:000878,0,,,1
