stop_id,stop_code,stop_name,stop_desc,stop_lat,stop_lon,zone_id,stop_url,location_type,parent_station,stop_timezone
16487,PA00002,"Agustín Príncipe N. º 2",,41.6531939858244,-0.92360279869157,,,,,Europe/Madrid
16488,PA00004,"Alfred Nobel / Monasterio",,41.6519129304332,-0.921246958013683,,,,,Europe/Madrid
16492,PA00006,"Alfred Nobel / Vía Hispanidad",,41.651746584933,-0.92020616070687,,,,,Europe/Madrid
16495,PA00007,"León Moyano / Alhama De Aragón",,41.6243554102388,-0.873924515483261,,,,,Europe/Madrid
16496,PA00008,"Miguel ángel Blanco N.º 53",,41.6396046321302,-0.92799227355797,,,,,Europe/Madrid
16499,PA00009,"Andrés Vicente N.º 25",,41.6485055128288,-0.913626331188163,,,,,Europe/Madrid
16500,PA00010,"Miguel Labordeta",,41.6524816468521,-0.916993197022523,,,,,Europe/Madrid
16508,PA00014,"Antonio Leyva N.º 33",,41.6517219289375,-0.923657514500001,,,,,Europe/Madrid
16511,PA00015,"Camino de Juslibol",,41.6739032808815,-0.874723226226375,,,,,Europe/Madrid
16515,PA00017,"Arzobispo Morcillo N.º 32",,41.637166383151,-0.891154186216804,,,,,Europe/Madrid
16520,PA00020,"Asalto N.º 53",,41.6492538999229,-0.87204032598684,,,,,Europe/Madrid
16524,PA00022,"Asín Y Palacios N.º 5",,41.6388123779601,-0.902919169235827,,,,,Europe/Madrid
16528,PA00024,"Vía Hispanidad / Asín Y Palacios",,41.6335087498945,-0.907536116015325,,,,,Europe/Madrid
16531,PA00025,"Asín Y Palacios N.º 8",,41.6381239582741,-0.903543738992899,,,,,Europe/Madrid
16532,PA00026,"Autonomía De Aragón / Campo De Fútbol",,41.6054065084468,-0.825108586221605,,,,,Europe/Madrid
16536,PA00028,"Av. Academia General Militar N.º 2",,41.6783510115542,-0.870964838302035,,,,,Europe/Madrid
16539,PA00029,"Av. Academia General Militar N.º 14",,41.6814769025933,-0.870911471671394,,,,,Europe/Madrid
16543,PA00031,"Av. Academia General Militar N.º 54",,41.683939701924,-0.870819872860294,,,,,Europe/Madrid
16544,PA00032,"Av. Academia General Militar / Cristo Rey",,41.6878976774961,-0.870670069055925,,,,,Europe/Madrid
16547,PA00033,"Av. Academia General Militar N.º 37",,41.6819891060374,-0.871141419372769,,,,,Europe/Madrid
16548,PA00034,"Av. Academia General Militar / Maz",,41.6860666268179,-0.870749712165504,,,,,Europe/Madrid
16552,PA00036,"Av. Academia General Militar / Maz (Dir. Centro)",,41.6849930587057,-0.871076536082339,,,,,Europe/Madrid
16556,PA00038,"Av. Alcalde Caballero N.º 50",,41.6695285703747,-0.860347632803015,,,,,Europe/Madrid
16559,PA00039,"Av. Alcalde Caballero / Claudio Tolomeo",,41.6768326764138,-0.868266195700211,,,,,Europe/Madrid
16560,PA00040,"Av. Alcalde Caballero / Camino De Los Molinos",,41.6766479727056,-0.868200103185215,,,,,Europe/Madrid
16563,PA00041,"Av. Alcalde Caballero / Gasolinera",,41.6727177390036,-0.861942596239049,,,,,Europe/Madrid
16564,PA00042,"Av. De La Almozara N.º 22",,41.6608684429028,-0.895511900424346,,,,,Europe/Madrid
16567,PA00043,"Av. De La Almozara N.º 50",,41.6631462627213,-0.898274442707066,,,,,Europe/Madrid
16568,PA00044,"Av.De América N.º 27",,41.6311235811273,-0.885451204359366,,,,,Europe/Madrid
16572,PA00046,"Av. De América N.º 69",,41.6294906342252,-0.885896862151292,,,,,Europe/Madrid
16575,PA00047,"Av. De América N.º 83",,41.6286328626276,-0.886162268492846,,,,,Europe/Madrid
16576,PA00048,"Av. De América N.º 107",,41.6274498886147,-0.886493153600891,,,,,Europe/Madrid
16579,PA00049,"Anselmo Clavé N.º 21",,41.6517335770951,-0.893383966829621,,,,,Europe/Madrid
16580,PA00050,"Anselmo Clavé N.º 45",,41.6496367995012,-0.8936541642185,,,,,Europe/Madrid
16583,PA00051,"Anselmo Clavé / Correos",,41.6508727189475,-0.89380394411181,,,,,Europe/Madrid
16584,PA00052,"Anselmo Clavé / Santander",,41.6491832585245,-0.893869341733286,,,,,Europe/Madrid
16588,PA00054,"Av. De Cataluña N.º 17",,41.6598301756156,-0.870402818352602,,,,,Europe/Madrid
16591,PA00055,"Av. De Cataluña N.º 51",,41.6614467944919,-0.86680318567199,,,,,Europe/Madrid
16592,PA00056,"Av. De Cataluña N.º 74 / Plaza Mozart",,41.6617185031354,-0.865888162714605,,,,,Europe/Madrid
16603,PA00061,"Av. De Cataluña N.º 103",,41.6639287070328,-0.860923615261541,,,,,Europe/Madrid
16607,PA00063,"Av. De Cataluña N.º 115",,41.6645378373218,-0.859440994047228,,,,,Europe/Madrid
16612,PA00066,"Av. De Cataluña N.º 126",,41.6638273634544,-0.860837515980125,,,,,Europe/Madrid
16616,PA00068,"Av. De Cataluña N.º 159",,41.6656771255092,-0.856792581567634,,,,,Europe/Madrid
16619,PA00069,"Av. De Cataluña N.º 165",,41.6666350175599,-0.854466671076203,,,,,Europe/Madrid
16620,PA00070,"Av. De Cataluña N.º 188",,41.6655559050423,-0.856624711077663,,,,,Europe/Madrid
16624,PA00072,"Av. De Cataluña N.º 226",,41.6666889192754,-0.853938552213908,,,,,Europe/Madrid
16627,PA00073,"Av. De Cataluña N.º 253",,41.6689671746152,-0.849127096923402,,,,,Europe/Madrid
16631,PA00075,"Av. De Cataluña N.º 290",,41.6692183455191,-0.847897553003779,,,,,Europe/Madrid
16636,PA00078,"Av. De Cataluña / Balcón De San Lázaro",,41.6583981513877,-0.873904195762318,,,,,Europe/Madrid
16640,PA00080,"Av. De Cataluña / Puente Del Gállego",,41.6706422905992,-0.844499299946252,,,,,Europe/Madrid
16644,PA00082,"Av. César Augusto N.º 4 / Puerta Del Carmen",,41.6501201645503,-0.887000332236145,,,,,Europe/Madrid
16667,PA00093,"Av. César Augusto / Morería",,41.6528646000925,-0.884408952122531,,,,,Europe/Madrid
16672,PA00096,"Av. Cesáreo Alierta N.º 11",,41.6454934117995,-0.877696615136597,,,,,Europe/Madrid
16675,PA00097,"Av. Cesáreo Alierta N.º 27",,41.6433156341234,-0.875986575723612,,,,,Europe/Madrid
16676,PA00098,"Av. Cesáreo Alierta N.º 55",,41.6410064540106,-0.874215827362303,,,,,Europe/Madrid
16680,PA00100,"Av. Cesáreo Alierta N.º 117",,41.6374550688095,-0.867443723980679,,,,,Europe/Madrid
16687,PA00103,"Ciudad Escolar Pignatelli",,41.6437826601967,-0.922253944812213,,,,,Europe/Madrid
16688,PA00104,"Av. Cesáreo Alierta N.º 22",,41.6454339233536,-0.878314077792195,,,,,Europe/Madrid
16692,PA00106,"Av. Cesáreo Alierta N.º 44 / Av. De San José",,41.6409812178821,-0.874797729840581,,,,,Europe/Madrid
16695,PA00107,"Av. Cesáreo Alierta N.º 72",,41.6395060294846,-0.872502492854752,,,,,Europe/Madrid
16696,PA00108,"Av. Cesáreo Alierta N.º 94",,41.6385891774598,-0.870533594040565,,,,,Europe/Madrid
16699,PA00109,"Pabellón Príncipe Felipe",,41.6371939319692,-0.868314641514622,,,,,Europe/Madrid
16700,PA00110,"Av. Cesáreo Alierta / P. Príncipe Felipe",,41.6351382121299,-0.864273899954751,,,,,Europe/Madrid
16703,PA00111,"Av. De La Ilustración N.º 28",,41.6305504217555,-0.936023125793048,,,,,Europe/Madrid
16704,PA00112,"Av. De La Ilustración N.º 32 / Ibón",,41.6314303630366,-0.939491825033514,,,,,Europe/Madrid
16707,PA00113,"Av. De La Ilustración N.º 21",,41.6300648698028,-0.935911780290333,,,,,Europe/Madrid
16708,PA00114,"Av. De La Ilustración / Depósito",,41.6274115737818,-0.925452262351252,,,,,Europe/Madrid
16711,PA00115,"Av. Ilustración  / Parque Félix De Azara",,41.6276816870292,-0.925536602720768,,,,,Europe/Madrid
16712,PA00116,"Av. De La Ilustración / De La Mesta",,41.6299922962456,-0.941011789352627,,,,,Europe/Madrid
16715,PA00117,"Av. De La Ilustración / Ibón",,41.6312941468688,-0.939187461763331,,,,,Europe/Madrid
16716,PA00118,"Av. De La Ilustración / Iglesia",,41.6282882586271,-0.927903122523684,,,,,Europe/Madrid
16719,PA00119,"Av. De La Ilustración / Supermercado",,41.6290416793625,-0.931550431160421,,,,,Europe/Madrid
16720,PA00120,"Av. De La Ilustración / Iglesia",,41.6285428152825,-0.928029044265916,,,,,Europe/Madrid
16723,PA00121,"Av. De La Ilustración / Centro Comercial",,41.629506506285,-0.931387961190969,,,,,Europe/Madrid
16724,PA00122,"Av. De La Jota N.º 16",,41.6606934824525,-0.862019107076508,,,,,Europe/Madrid
16727,PA00123,"Av. De La Jota N.º 42 / C.S.  La Jota",,41.6612936834939,-0.859202881755626,,,,,Europe/Madrid
16728,PA00124,"Av. De Los Pirineos / Colegio",,41.6628180294337,-0.881078658907683,,,,,Europe/Madrid
16732,PA00126,"Av. De Los Pirineos / Tv Aragón",,41.6617566103023,-0.880793766268568,,,,,Europe/Madrid
16740,PA00130,"Avda. De Los Pirineos (Macanaz)",,41.6602894959544,-0.880319805894401,,,,,Europe/Madrid
16743,PA00131,"Av. De Los Pirineos / Valle Broto",,41.6657941655355,-0.880759671915973,,,,,Europe/Madrid
16747,PA00133,"Av. Gómez Laguna N.º 6",,41.6429477618659,-0.906943594929544,,,,,Europe/Madrid
16748,PA00134,"Av. Gómez Laguna N.º 20",,41.641915157265,-0.910110201391913,,,,,Europe/Madrid
16751,PA00135,"Av. Gómez Laguna N.º 25",,41.6416023100268,-0.910231548033636,,,,,Europe/Madrid
16752,PA00136,"Av. Gómez Laguna N.º 15",,41.642346183995,-0.907897677158258,,,,,Europe/Madrid
16755,PA00137,"Av. Gómez Laguna N.º 48",,41.640697176167,-0.913747832897709,,,,,Europe/Madrid
16759,PA00139,"Av. Gómez Laguna N.º 49",,41.6405680954334,-0.913440531345923,,,,,Europe/Madrid
16760,PA00140,"Av. Gómez Laguna / Vía Ibérica",,41.6232793760034,-0.913827887201861,,,,,Europe/Madrid
16763,PA00141,"Av. Francisco De Goya N.º 2",,41.6425633360899,-0.886837338453487,,,,,Europe/Madrid
16764,PA00142,"Av. Francisco De Goya N.º 3",,41.6423953329333,-0.886747460087758,,,,,Europe/Madrid
16767,PA00143,"Av. Francisco De Goya N.º 47 / Estación Cercanías",,41.643808828823,-0.891462845231892,,,,,Europe/Madrid
16768,PA00144,"Av. Francisco De Goya N.º 50",,41.6439675013637,-0.890958164395771,,,,,Europe/Madrid
16771,PA00145,"Av. Francisco De Goya N.º 59",,41.6450624252704,-0.893091338378709,,,,,Europe/Madrid
16772,PA00146,"Av. Francisco De Goya N.º 66",,41.6452698319059,-0.893005162241813,,,,,Europe/Madrid
16775,PA00147,"Av. Francisco De Goya N.º 83",,41.6467278794408,-0.893819641105482,,,,,Europe/Madrid
16776,PA00148,"Av. Francisco De Goya N.º 90",,41.6469191200661,-0.893569200469865,,,,,Europe/Madrid
16779,PA00149,"Av. Peñaflor N.º 56",,41.7591747865379,-0.796500333945048,,,,,Europe/Madrid
16784,PA00152,"Av. De Madrid N.º 29 / Aljafería",,41.6555408256427,-0.895993367058476,,,,,Europe/Madrid
16788,PA00154,"Av. De Madrid N.º 36",,41.6541755035486,-0.901838876469877,,,,,Europe/Madrid
16791,PA00155,"Av. De Madrid N.º 38",,41.6541451697575,-0.901963661681596,,,,,Europe/Madrid
16796,PA00158,"Av. De Madrid N.º 94 / Plaza Huesca",,41.6530419344834,-0.906341483340819,,,,,Europe/Madrid
16800,PA00160,"Av. De Madrid N.º 108",,41.652655497223,-0.907965003658,,,,,Europe/Madrid
16803,PA00161,"Av. De Madrid N.º 117",,41.6541066562652,-0.901716694702366,,,,,Europe/Madrid
16804,PA00162,"Av. De Madrid N.º 119",,41.6540292809815,-0.90204421463609,,,,,Europe/Madrid
16807,PA00163,"Av. De Madrid N.º 134 / Rioja",,41.6522288315298,-0.909905921462747,,,,,Europe/Madrid
16811,PA00165,"Av. De Madrid N.º 139",,41.6535865021024,-0.90376845291221,,,,,Europe/Madrid
16815,PA00167,"Av. De Madrid N.º 158",,41.6515495380151,-0.913032496995209,,,,,Europe/Madrid
16819,PA00169,"Av. De Madrid N.º 170",,41.6512537904144,-0.914348788801021,,,,,Europe/Madrid
16823,PA00171,"Av. De Madrid N.º 183",,41.6526248984226,-0.907666169801566,,,,,Europe/Madrid
16827,PA00173,"Av. De Madrid N.º 215",,41.6521926265394,-0.909560145416855,,,,,Europe/Madrid
16831,PA00175,"Av. De Madrid N.º 220 / Los Enlaces",,41.6506574766229,-0.917207294227315,,,,,Europe/Madrid
16832,PA00176,"Av. De Madrid N.º 241",,41.6516137309804,-0.912186446765379,,,,,Europe/Madrid
16836,PA00178,"Av. De Madrid N.º 259",,41.6511875725272,-0.914085489176058,,,,,Europe/Madrid
16840,PA00180,"Av. De Madrid N.º 285 / Los Enlaces",,41.6505414441804,-0.916930401200509,,,,,Europe/Madrid
16843,PA00181,"Avenida De Madrid Nº 285 / Supermercado",,41.6504182188234,-0.917000941948361,,,,,Europe/Madrid
16844,PA00182,"Av. De Navarra N.º 1",,41.6545976293743,-0.901631765487061,,,,,Europe/Madrid
16847,PA00183,"Av. De Navarra N.º 12",,41.6548998965093,-0.901728165874282,,,,,Europe/Madrid
16848,PA00184,"Av. De Navarra N.º 30",,41.6552075073747,-0.904134125328536,,,,,Europe/Madrid
16851,PA00185,"Av. De Navarra N.º 33",,41.6548864282003,-0.903997403476381,,,,,Europe/Madrid
16852,PA00186,"Av. De Navarra N.º 71",,41.6553730898574,-0.907416706309432,,,,,Europe/Madrid
16855,PA00187,"Av. De Navarra N.º 119",,41.656570860754,-0.912407068997988,,,,,Europe/Madrid
16856,PA00188,"Av. De Navarra N.º 183",,41.6585149015614,-0.918845757692637,,,,,Europe/Madrid
16859,PA00189,"Av. De Navarra / Centro Cívico",,41.6555739942765,-0.906753507090859,,,,,Europe/Madrid
16862,PA00191,"Av. De Navarra / C.M.E. Inocencio Jiménez",,41.6563800607659,-0.91074256323317,,,,,Europe/Madrid
16863,PA00192,"Av. De Navarra / Miguel Herrero",,41.657770629755,-0.914936593600429,,,,,Europe/Madrid
16864,PA00193,"Av. De Navarra / Ies Santiago Hernández",,41.6576287323604,-0.915711969303122,,,,,Europe/Madrid
16865,PA00194,"Av. Pablo Gargallo N.º 71",,41.6607397022906,-0.899588227043357,,,,,Europe/Madrid
16866,PA00195,"Av. Pablo Gargallo N.º 95",,41.6612373409406,-0.902273695429099,,,,,Europe/Madrid
16867,PA00196,"Madre Teresa De Calcuta  N.º 3",,41.6442362530444,-0.911262892108236,,,,,Europe/Madrid
16868,PA00197,"Av. Gómez Laguna / Rotonda",,41.6270665982481,-0.920274343421602,,,,,Europe/Madrid
16869,PA00198,"Av. Pablo Gargallo / Bonn",,41.6614703139841,-0.902255091110646,,,,,Europe/Madrid
16870,PA00199,"Av. Pablo Gargallo / Monasterio Sta. Lucía",,41.6601396876597,-0.896707807815808,,,,,Europe/Madrid
16871,PA00200,"Av. Pablo Gargallo / Plaza Europa",,41.6595897658754,-0.894262393287987,,,,,Europe/Madrid
16874,PA00203,"Av. Puente Del Pilar / Colegio",,41.6595623703747,-0.867986634328463,,,,,Europe/Madrid
16876,PA00205,"Av. Puerta De Sancho N.º 20",,41.660763501339,-0.901891670002423,,,,,Europe/Madrid
16877,PA00206,"Av. Puerta De Sancho N.º 23",,41.6627654182366,-0.90125925687476,,,,,Europe/Madrid
16879,PA00208,"Av. Real Zaragoza N.º 65",,41.6667844638458,-0.823117739950223,,,,,Europe/Madrid
16880,PA00209,"Av. Ramón Sainz De Varanda / Conservatorio",,41.6378136693342,-0.910439703718213,,,,,Europe/Madrid
16881,PA00210,"Av. Salvador Allende N.º 5",,41.6675548294218,-0.876789613415063,,,,,Europe/Madrid
16883,PA00212,"Av. Salvador Allende N.º 67",,41.6748152703345,-0.877201317898675,,,,,Europe/Madrid
16884,PA00213,"Av. Salvador Allende Fte. N.º 85",,41.677440209895,-0.873995764494383,,,,,Europe/Madrid
16885,PA00214,"Av. Salvador Allende / San Juan De La Peña",,41.6775103491892,-0.871892771788353,,,,,Europe/Madrid
16886,PA00215,"Av. Salvador Allende N.º 85",,41.6776019766976,-0.874368158397862,,,,,Europe/Madrid
16887,PA00216,"Av. Salvador Allende N.º 107",,41.6777286502833,-0.872195763713879,,,,,Europe/Madrid
16888,PA00217,"Av. Salvador Allende / Bomberos",,41.6680005744794,-0.876454966632381,,,,,Europe/Madrid
16889,PA00218,"Av. Salvador Allende / Del Somport",,41.6749339942206,-0.876830935107454,,,,,Europe/Madrid
16890,PA00219,"Hospital Royo Villanova",,41.6924804109417,-0.862264205093092,,,,,Europe/Madrid
16892,PA00221,"Av. De San José N.º 10",,41.6451659922679,-0.872578813009713,,,,,Europe/Madrid
16893,PA00222,"Av. De San José N.º 38",,41.643419130457,-0.872964546221129,,,,,Europe/Madrid
16894,PA00223,"Av. De San José N.º 45",,41.6430902160315,-0.872866450121005,,,,,Europe/Madrid
16895,PA00224,"Av. De San José N.º 66",,41.6408589761406,-0.873594956986026,,,,,Europe/Madrid
16897,PA00226,"Av. De San José N.º 70",,41.6394622749779,-0.874594925348428,,,,,Europe/Madrid
16898,PA00227,"Av. De San José N.º 97",,41.6395854320623,-0.874235362687303,,,,,Europe/Madrid
16899,PA00228,"Av. De San José N.º 124",,41.6383334531806,-0.876019999462468,,,,,Europe/Madrid
16900,PA00229,"Av. De San José N.º 133",,41.6380020507339,-0.876238406681751,,,,,Europe/Madrid
16901,PA00230,"Av. De San José N.º 159",,41.6365237236894,-0.878086476695711,,,,,Europe/Madrid
16903,PA00232,"Av. De San José N.º 200",,41.6356468080425,-0.879435019526866,,,,,Europe/Madrid
16904,PA00233,"Av. De San José N.º 209",,41.6339766619544,-0.881460938425975,,,,,Europe/Madrid
16905,PA00234,"Av. De San José N.º 224",,41.6340579966154,-0.881550161796477,,,,,Europe/Madrid
16906,PA00235,"Av. De San José / Av. Tenor Fleta",,41.6371932109741,-0.877464070045562,,,,,Europe/Madrid
16907,PA00236,"Av. San Juan Bosco N.º 7",,41.6445774881399,-0.901006115200107,,,,,Europe/Madrid
16908,PA00237,"Av. San Juan Bosco N.º 10",,41.6449967634639,-0.900446732142086,,,,,Europe/Madrid
16909,PA00238,"Av. San Juan Bosco N.º 66 / Hospital Clínico",,41.6435563419715,-0.904921544859819,,,,,Europe/Madrid
16910,PA00239,"Av. San Juan Bosco / Hospital Clínico",,41.6436756155893,-0.90381451701051,,,,,Europe/Madrid
16911,PA00240,"Av. Santa Isabel N.º 9 / Av. De La Industria",,41.6700593358112,-0.839431667571399,,,,,Europe/Madrid
16914,PA00243,"Av. Santa Isabel N.º 52",,41.6673233375482,-0.834292663469705,,,,,Europe/Madrid
16915,PA00244,"Av. Santa Isabel N.º 59",,41.667524035606,-0.835109904801057,,,,,Europe/Madrid
16918,PA00247,"Av. Santa Isabel N.º 124",,41.666822789967,-0.829064762020452,,,,,Europe/Madrid
16919,PA00248,"Av. Santa Isabel N.º 141",,41.6669513666278,-0.828784954771924,,,,,Europe/Madrid
16920,PA00249,"Av. Tenor Fleta N.º 2",,41.641741493728,-0.8854172326384,,,,,Europe/Madrid
16921,PA00250,"Av. Tenor Fleta N.º 3",,41.6420661660277,-0.885620164604794,,,,,Europe/Madrid
16922,PA00251,"Av. Tenor Fleta N.º 33",,41.6404023291962,-0.882321846786852,,,,,Europe/Madrid
16923,PA00252,"Av. Tenor Fleta N.º 34",,41.6402858252242,-0.882510279012063,,,,,Europe/Madrid
16924,PA00253,"Av. Tenor Fleta N.º 57",,41.6390759679085,-0.879746144585261,,,,,Europe/Madrid
16925,PA00254,"Av. Tenor Fleta N.º 62",,41.6386746784845,-0.879407752990528,,,,,Europe/Madrid
16926,PA00255,"Av. Tenor Fleta N.º 82",,41.6378384987983,-0.877794184987233,,,,,Europe/Madrid
16927,PA00256,"Av. Tenor Fleta N.º 89",,41.6379150285949,-0.877481986549225,,,,,Europe/Madrid
16928,PA00257,"Av. Tenor Fleta N.º 124",,41.6365231556165,-0.875280628594152,,,,,Europe/Madrid
16929,PA00258,"Av. Valdefierro N.º 1",,41.6445216258319,-0.926520214695049,,,,,Europe/Madrid
16930,PA00259,"Dalia N.º 2",,41.6435495512525,-0.926609284473531,,,,,Europe/Madrid
16931,PA00260,"Av. Valdefierro N.º 43",,41.6405680176344,-0.928987088381053,,,,,Europe/Madrid
16932,PA00261,"Av. Valdefierro N.º 27",,41.6420433122736,-0.928065628489188,,,,,Europe/Madrid
16933,PA00262,"Av. De Valencia N.º 8",,41.6474059039929,-0.894482318261775,,,,,Europe/Madrid
16934,PA00263,"Av. De Valencia N.º 38",,41.6463000231225,-0.897180784953183,,,,,Europe/Madrid
16935,PA00264,"Av. De Valencia N.º 41",,41.646153480996,-0.897106856800959,,,,,Europe/Madrid
16936,PA00265,"Av. De Valencia N.º 63",,41.6453448452196,-0.899145888115537,,,,,Europe/Madrid
16937,PA00266,"Balbino Orensanz N.º 7",,41.6594613318425,-0.858927816527442,,,,,Europe/Madrid
16938,PA00267,"Balbino Orensanz N.º 29",,41.6575683407364,-0.858834334910683,,,,,Europe/Madrid
16939,PA00268,"Balbino Orensanz / Parque De Oriente",,41.6567787789207,-0.858688331283606,,,,,Europe/Madrid
16940,PA00269,"Balbino Orensanz / Velilla De Ebro",,41.6591590806284,-0.859078949516321,,,,,Europe/Madrid
16941,PA00270,"Betore Bergua N.º 1",,41.6550138487334,-0.855962801969297,,,,,Europe/Madrid
16942,PA00271,"Biarritz N.º 14",,41.6556055746421,-0.920253748618131,,,,,Europe/Madrid
16944,PA00273,"C.M.E. Grande Covián",,41.6645375849448,-0.85852132315991,,,,,Europe/Madrid
16945,PA00274,"C.S. Las Fuentes Norte",,41.6493664403091,-0.864280481625924,,,,,Europe/Madrid
16946,PA00275,"Terrazas De Cuéllar N.º 4",,41.6322148013732,-0.879467980808357,,,,,Europe/Madrid
16948,PA00277,"Carmen N.º 19",,41.6466812713876,-0.892945924287609,,,,,Europe/Madrid
16949,PA00278,"Catorce De Septiembre N.º 29",,41.6046684327305,-0.824090735349278,,,,,Europe/Madrid
16950,PA00279,"Cejador Frauca N.º 10",,41.6352165001105,-0.891052683718387,,,,,Europe/Madrid
16951,PA00280,"Celso Emilio Ferreiro N.º 6",,41.6541433286852,-0.913552194713939,,,,,Europe/Madrid
16952,PA00281,"Celso Emilio Ferreiro N.º 15",,41.6531782038637,-0.915527599936756,,,,,Europe/Madrid
16953,PA00282,"Celso Emilio Ferreiro / Celanova",,41.654211585581,-0.911205101695756,,,,,Europe/Madrid
16954,PA00283,"Av. De La Ilustración N.º 40",,41.6291883873766,-0.941254079715118,,,,,Europe/Madrid
16955,PA00284,"Camino De Las Torres N.º 10",,41.6466450161467,-0.873951273270425,,,,,Europe/Madrid
16956,PA00285,"Camino De Las Torres N.º 17",,41.6457837128965,-0.875288874613651,,,,,Europe/Madrid
16958,PA00287,"Camino De Las Torres N.º 35",,41.644221668112,-0.878694155134718,,,,,Europe/Madrid
16959,PA00288,"Camino De Las Torres N.º 40",,41.6443861711688,-0.878719003048189,,,,,Europe/Madrid
16960,PA00289,"Camino De Las Torres N.º 49",,41.6429066254276,-0.881197941224413,,,,,Europe/Madrid
16961,PA00290,"Camino De Las Torres N.º 79",,41.6413038859654,-0.883336449447443,,,,,Europe/Madrid
16962,PA00291,"Camino De Las Torres N.º 105",,41.6401545937089,-0.885462318392359,,,,,Europe/Madrid
16964,PA00293,"Camino De Las Torres N.º 116",,41.6401816237682,-0.885834673150122,,,,,Europe/Madrid
16965,PA00294,"Camino De Las Torres / Plaza Schweitzer",,41.6426564972115,-0.881945829998404,,,,,Europe/Madrid
16967,PA00296,"Camino Del Pilón N.º 57",,41.6585167358685,-0.931056796970198,,,,,Europe/Madrid
16968,PA00297,"Camino Del Pilón N.º 86 / Ibón De Plan",,41.6589647289036,-0.937289367027176,,,,,Europe/Madrid
16969,PA00298,"Camino Del Pilón N.º 122",,41.6587407724492,-0.941138359578167,,,,,Europe/Madrid
16970,PA00299,"Camino Del Pilón N.º 131",,41.658622415593,-0.940429037173793,,,,,Europe/Madrid
16971,PA00300,"Camino Del Pilón / Iglesia",,41.6586523365186,-0.942157671638258,,,,,Europe/Madrid
16972,PA00301,"Camino Del Pilón / Ibón De Plan",,41.6588655049446,-0.936974314066253,,,,,Europe/Madrid
16975,PA00304,"Camino Del Pilón / Anillo Verde",,41.6587222976711,-0.925597460574172,,,,,Europe/Madrid
16976,PA00305,"Ismael Hipólito Lor Vicente",,41.658015667115,-0.927621166669074,,,,,Europe/Madrid
16979,PA00308,"Comín Ros N.º 3",,41.6550578981658,-0.913025004961116,,,,,Europe/Madrid
16980,PA00309,"Celso Emilio Ferreiro N.º 12",,41.6535834082344,-0.915414696591466,,,,,Europe/Madrid
16983,PA00312,"Av. Compromiso De Caspe N.º 27",,41.6460923577505,-0.869448808683007,,,,,Europe/Madrid
16984,PA00313,"Av. Compromiso De Caspe N.º 48",,41.64544749889,-0.864949669428566,,,,,Europe/Madrid
16985,PA00314,"Av. Compromiso De Caspe N.º 72",,41.6451593334553,-0.861744821337893,,,,,Europe/Madrid
16986,PA00315,"Conde De Aranda N.º 2  / Colegio",,41.6544393861986,-0.885217448843704,,,,,Europe/Madrid
16988,PA00317,"Conde De Aranda N.º 3  / Colegio",,41.6542083282279,-0.884858445429613,,,,,Europe/Madrid
16991,PA00320,"Conde De Aranda N.º 41",,41.655053227851,-0.888212460817534,,,,,Europe/Madrid
16992,PA00321,"Conde De Aranda N.º 62",,41.6552291774335,-0.888392927274079,,,,,Europe/Madrid
16995,PA00324,"Conde De Aranda N.º 122 / Plaza Del Portillo",,41.6559146270197,-0.891705743985625,,,,,Europe/Madrid
16996,PA00325,"Condes De Aragón N.º 16",,41.6387756266728,-0.905801115641153,,,,,Europe/Madrid
16997,PA00326,"Condes De Aragón / Av. Juan Pablo Ii",,41.6367778281986,-0.907159358447937,,,,,Europe/Madrid
16998,PA00327,"Condes De Aragón / Vía Hispanidad",,41.6345266695652,-0.908710666750111,,,,,Europe/Madrid
16999,PA00328,"Corona De Aragón N.º 33",,41.6433225361124,-0.896760525236947,,,,,Europe/Madrid
17000,PA00329,"Corona De Aragón N.º 51",,41.6447223243969,-0.899404012342685,,,,,Europe/Madrid
17004,PA00333,"Coso N.º 54 / Banco De España",,41.6518570462886,-0.88010586154666,,,,,Europe/Madrid
17005,PA00334,"Coso N.º 55 / Teatro Principal",,41.6518378381849,-0.879567669740568,,,,,Europe/Madrid
17006,PA00335,"Coso N.º 62",,41.651631881324,-0.879559560520322,,,,,Europe/Madrid
17007,PA00336,"Coso N.º 66",,41.6514900549722,-0.879185227187021,,,,,Europe/Madrid
17009,PA00338,"Coso N.º 126",,41.6508767636144,-0.875490299124304,,,,,Europe/Madrid
17011,PA00340,"Coso N.º 188",,41.6527321656362,-0.872202733328167,,,,,Europe/Madrid
17017,PA00346,"Cristo Rey N.º 23",,41.6929555485344,-0.865967208929801,,,,,Europe/Madrid
17018,PA00347,"Cristo Rey N.º 77",,41.6909682854576,-0.863732561026393,,,,,Europe/Madrid
17019,PA00348,"Martín Díez De Aux N.º 4",,41.6281668560622,-0.943720672806926,,,,,Europe/Madrid
17020,PA00349,"Ctra. Castellón / Cementerio",,41.6282291809109,-0.852724787541464,,,,,Europe/Madrid
17021,PA00350,"Ctra. Castellón P.K. 231",,41.6111781794512,-0.834823221967586,,,,,Europe/Madrid
17023,PA00352,"José Ramírez N.º 82",,41.6049429092123,-0.826969289264662,,,,,Europe/Madrid
17024,PA00353,"Ctra. Castellón Fte. Cementerio",,41.6281041682067,-0.852978503029163,,,,,Europe/Madrid
17025,PA00354,"Carretera Castellón / Gasolinera",,41.6231327551673,-0.846292812573604,,,,,Europe/Madrid
17026,PA00355,"Estación Delicias / Acceso Salidas",,41.6580285860583,-0.908494336797533,,,,,Europe/Madrid
17027,PA00356,"Ctra. Castellón / Pol. Ind. San Valero",,41.6185623471863,-0.842556808007189,,,,,Europe/Madrid
17028,PA00357,"Ctra. Castellón / Pol. Ind. San Valero",,41.6181083290828,-0.843924185691171,,,,,Europe/Madrid
17032,PA00361,"Av. M.Rodriguez Ayuso N.º 11",,41.646501076965,-0.922800787666091,,,,,Europe/Madrid
17033,PA00362,"Av. M.Rodriguez Ayuso N.º 44",,41.6484110018438,-0.921423161905091,,,,,Europe/Madrid
17034,PA00363,"Av. M.Rodriguez Ayuso / Anillo Verde",,41.6465076991307,-0.923216769916146,,,,,Europe/Madrid
17036,PA00365,"Bernardo Ramazzini N.º 5",,41.6844877339818,-0.868712422187531,,,,,Europe/Madrid
17037,PA00366,"Autovía De Huesca / Pasarela",,41.6928276060661,-0.869986425264005,,,,,Europe/Madrid
17038,PA00367,"Av. De Montañana N.º 159",,41.6805810187765,-0.829534065995126,,,,,Europe/Madrid
17039,PA00368,"Av. De Montañana N.º 182",,41.6811858415532,-0.829175636178194,,,,,Europe/Madrid
17040,PA00369,"Av. De Montañana N.º 254",,41.6847462635547,-0.828816181282204,,,,,Europe/Madrid
17041,PA00370,"Av. De Montañana N.º 283",,41.6864418399322,-0.828834468266185,,,,,Europe/Madrid
17042,PA00371,"Av. De Montañana N.º 288",,41.6868427671805,-0.828645718544089,,,,,Europe/Madrid
17043,PA00372,"Av. De Montañana N.º 332",,41.6889096750462,-0.827390493910491,,,,,Europe/Madrid
17044,PA00373,"Av. De Montañana N.º 341",,41.6886680436905,-0.827801392418632,,,,,Europe/Madrid
17045,PA00374,"Av. De Montañana N.º 354",,41.6898101320077,-0.82648697948998,,,,,Europe/Madrid
17046,PA00375,"Av. De Montañana N.º 381",,41.6899169125343,-0.826549009851658,,,,,Europe/Madrid
17047,PA00376,"Av. De Montañana N.º 382",,41.6911339708239,-0.825155567219779,,,,,Europe/Madrid
17048,PA00377,"Av. De Montañana N.º 419",,41.6911965086377,-0.825267387361398,,,,,Europe/Madrid
17049,PA00378,"Av. De Montañana N.º 489",,41.692768224907,-0.822754865393383,,,,,Europe/Madrid
17050,PA00379,"Av. De Montañana N.º 541",,41.6937643269855,-0.820954585350318,,,,,Europe/Madrid
17051,PA00380,"Av. De Montañana N.º 574",,41.6950221955695,-0.818684433490401,,,,,Europe/Madrid
17052,PA00381,"Av. De Montañana N.º 584",,41.69573436582,-0.817180848918022,,,,,Europe/Madrid
17053,PA00382,"Av. De Montañana N.º 587",,41.6950304393364,-0.818943885200396,,,,,Europe/Madrid
17054,PA00383,"Av. De Montañana N.º 625",,41.6957657550678,-0.817442306439888,,,,,Europe/Madrid
17055,PA00384,"Av. De Montañana / Supermercado",,41.6705289376781,-0.838264122872799,,,,,Europe/Madrid
17056,PA00385,"Av. De Montañana / Fte. Supermercado",,41.6705858159925,-0.83852462158469,,,,,Europe/Madrid
17057,PA00386,"Av. De Montañana N.º 500",,41.6936799607921,-0.820862897494654,,,,,Europe/Madrid
17058,PA00387,"Av. De Montañana Fte. N.º 254",,41.6844958848649,-0.82898910817482,,,,,Europe/Madrid
17059,PA00388,"Av. De Montañana Fte. N.º 489",,41.6926211657881,-0.822795175614996,,,,,Europe/Madrid
17060,PA00389,"Av. De Montañana / Gasolinera",,41.6726704360103,-0.833740375117098,,,,,Europe/Madrid
17061,PA00390,"Av. De Montañana / Báscula",,41.6769173840221,-0.829731246125155,,,,,Europe/Madrid
17062,PA00391,"Av. De Montañana N.º 98 / Báscula",,41.6772713337234,-0.829624996544744,,,,,Europe/Madrid
17063,PA00392,"Av. De Montañana / Vivero",,41.6728273653684,-0.833819037567344,,,,,Europe/Madrid
17064,PA00393,"Av. De Montañana N.º 678",,41.700455358445,-0.815117329610675,,,,,Europe/Madrid
17065,PA00394,"Av. De Montañana N.º 720",,41.7031223763949,-0.814835650416751,,,,,Europe/Madrid
17066,PA00395,"Av. De Montañana N.º 777",,41.7026879855662,-0.81512443598052,,,,,Europe/Madrid
17067,PA00396,"Av. De Montañana N.º 788",,41.7058368460667,-0.814262154278285,,,,,Europe/Madrid
17068,PA00397,"Av. De Montañana N.º 826",,41.7077171952876,-0.813766501613185,,,,,Europe/Madrid
17069,PA00398,"Av. De Montañana N.º 895",,41.7076074679901,-0.814007569990857,,,,,Europe/Madrid
17070,PA00399,"Av. De Montañana N.º 844",,41.7106889447109,-0.812569185068854,,,,,Europe/Madrid
17071,PA00400,"Av. De Montañana N.º 935",,41.7105976697276,-0.812824427293898,,,,,Europe/Madrid
17072,PA00401,"Av. De Montañana N.º 876",,41.713818660234,-0.811188209463484,,,,,Europe/Madrid
17073,PA00402,"Av. De Montañana N.º 999",,41.7196219923024,-0.810230444850821,,,,,Europe/Madrid
17074,PA00403,"Ctra. Peñaflor / Camino Azud De Urzán",,41.7302516916332,-0.808957358828089,,,,,Europe/Madrid
17075,PA00404,"Ctra. Peñaflor C. Protección Animal",,41.7424096952858,-0.805976735735594,,,,,Europe/Madrid
17076,PA00405,"Ctra. Peñaflor Fte. C. Protección Animal",,41.7418730458965,-0.806389062800951,,,,,Europe/Madrid
17077,PA00406,"Av. De Montañana / Cno. B. Las Flores",,41.7182510713306,-0.810033215748249,,,,,Europe/Madrid
17078,PA00407,"Av. De Montañana / Cno. B. Las Flores",,41.7182431339201,-0.810198135416369,,,,,Europe/Madrid
17079,PA00408,"Ctra. Peñaflor / Cita",,41.7235026733818,-0.810850188930764,,,,,Europe/Madrid
17080,PA00409,"Ctra. Peñaflor / Centro Experimental Aula Dei",,41.724634086259,-0.810359887782529,,,,,Europe/Madrid
17081,PA00410,"Ctra. Peñaflor / Cartuja Aula Dei",,41.732958184023,-0.809023603726614,,,,,Europe/Madrid
17082,PA00411,"Ctra. Peñaflor / Camino Perdiguera",,41.7329951449761,-0.808798086895528,,,,,Europe/Madrid
17083,PA00412,"Av. Peñaflor Fte. N.º 27",,41.7568037679442,-0.797643385024852,,,,,Europe/Madrid
17084,PA00413,"Ctra. Peñaflor / Camino Azud Urdán",,41.730368396564,-0.808764428222012,,,,,Europe/Madrid
17085,PA00414,"Av. De Montañana N.º 839",,41.7056348231015,-0.814456795380736,,,,,Europe/Madrid
17086,PA00415,"Av. De Montañana N.º 967",,41.7136884297603,-0.811407999411312,,,,,Europe/Madrid
17087,PA00416,"Av. De Montañana Fte. N.º 999",,41.7196946703762,-0.810063611937897,,,,,Europe/Madrid
17088,PA00417,"Av. De Montañana N.º 709",,41.7000123097336,-0.815296338829054,,,,,Europe/Madrid
17089,PA00418,"Ctra. Peñaflor Fte. Camino El Regao",,41.7350306995388,-0.808828355805643,,,,,Europe/Madrid
17090,PA00419,"Av. Peñaflor N.º 27",,41.7566969022705,-0.797868164755142,,,,,Europe/Madrid
17091,PA00420,"Av. De Montañana N.º 981",,41.7158574853812,-0.810943910451841,,,,,Europe/Madrid
17092,PA00421,"Av. De Montañana N.º 886",,41.715521859977,-0.810802051945775,,,,,Europe/Madrid
17093,PA00422,"Ctra. Peñaflor / Camino El Regao",,41.7351440073422,-0.808571980521123,,,,,Europe/Madrid
17094,PA00423,"Ctra. Peñaflor / Torre Givalta",,41.7452083000201,-0.804348291281816,,,,,Europe/Madrid
17095,PA00424,"Ctra. Peñaflor / Campanero",,41.7450844776957,-0.804610961502621,,,,,Europe/Madrid
17096,PA00425,"Cuarta Avenida N.º 21",,41.62485816222,-0.87644983112475,,,,,Europe/Madrid
17097,PA00426,"Cuarta Avenida N.º 62",,41.6247168290015,-0.877487069438942,,,,,Europe/Madrid
17098,PA00427,"Av. Peñaflor N.º 79",,41.7600081383328,-0.796060687874625,,,,,Europe/Madrid
17100,PA00429,"Doctor Iranzo N.º 37",,41.645175760217,-0.864419004144975,,,,,Europe/Madrid
17101,PA00430,"Doctor Iranzo N.º 61",,41.6478385311535,-0.863892828646653,,,,,Europe/Madrid
17102,PA00431,"Doctor Iranzo N.º 90 / C.S. Las Fuentes Norte",,41.6501146792653,-0.863462152048188,,,,,Europe/Madrid
17103,PA00432,"Plaza De Ariño",,41.6534610055696,-0.878279774650385,,,,,Europe/Madrid
17104,PA00433,"Don Jaime I / Plaza De La Seo",,41.6553283444026,-0.876698153610908,,,,,Europe/Madrid
17105,PA00434,"Duquesa Villahermosa N.º 3",,41.6490432721462,-0.899543654625771,,,,,Europe/Madrid
17106,PA00435,"Duquesa Villahermosa N.º 10",,41.6487894519464,-0.901010300385945,,,,,Europe/Madrid
17107,PA00436,"Duquesa Villahermosa N.º 42",,41.6479519303749,-0.903369390244844,,,,,Europe/Madrid
17108,PA00437,"Duquesa Villahermosa N.º 97",,41.6474776048299,-0.904234012617165,,,,,Europe/Madrid
17110,PA00439,"Duquesa Villahermosa N.º 155",,41.6443600944145,-0.913652933101981,,,,,Europe/Madrid
17111,PA00440,"Duquesa Villahermosa / Alferez Rojas",,41.6444858038503,-0.914121682421341,,,,,Europe/Madrid
17113,PA00442,"Duquesa Villahermosa N.º 109 / Vía Univérsitas",,41.6469281581806,-0.90648696140619,,,,,Europe/Madrid
17114,PA00443,"Duquesa Villahermosa / Centro Deportivo Municipal",,41.6466767972032,-0.906575053554116,,,,,Europe/Madrid
17115,PA00444,"San Antonio De Padua / Valladolid",,41.6289158411233,-0.875360332976176,,,,,Europe/Madrid
17116,PA00445,"Campus Río Ebro",,41.6838841298185,-0.889498868410751,,,,,Europe/Madrid
17117,PA00446,"Escultor Palao",,41.6481945689657,-0.917341527784184,,,,,Europe/Madrid
17119,PA00448,"Faustino Casamayor N.º 20",,41.6260767956362,-0.879267111856869,,,,,Europe/Madrid
17122,PA00451,"Felisa Galé N.º 7",,41.6632421601236,-0.860972512440475,,,,,Europe/Madrid
17131,PA00460,"Doctor Iranzo / José Martínez Ruiz Azorín",,41.6510209935821,-0.86305163868768,,,,,Europe/Madrid
17132,PA00461,"María De Aragón / C.S. Torre Ramona",,41.6406936790014,-0.86272036119992,,,,,Europe/Madrid
17133,PA00462,"Av. Peñaflor / Cuartel Guardia Civil",,41.7587182646257,-0.79691450580398,,,,,Europe/Madrid
17134,PA00463,"Franco Y López N.º 57",,41.6478434265988,-0.901893663547943,,,,,Europe/Madrid
17135,PA00464,"Fray Julián Garcés N.º 52",,41.6291273364369,-0.887605167972557,,,,,Europe/Madrid
17137,PA00466,"Av. De La Ilustración N.º 37",,41.62792951506,-0.941506244282406,,,,,Europe/Madrid
17138,PA00467,"Fray Julián Garcés N.º 88",,41.627609497835,-0.88821049847908,,,,,Europe/Madrid
17139,PA00468,"Fray Julián Garcés N.º 106",,41.6254265397498,-0.888915733789642,,,,,Europe/Madrid
17140,PA00469,"Fray Luis Urbano/ Rodrigo Rebolledo",,41.645818596634,-0.859162690964337,,,,,Europe/Madrid
17141,PA00470,"Fray Luis Urbano / Madrina Salinas",,41.6484444053503,-0.858692509293624,,,,,Europe/Madrid
17142,PA00471,"Fueros De Aragón N.º 15",,41.6468422685333,-0.895095006845578,,,,,Europe/Madrid
17143,PA00472,"Gabriel Gombao N.º 9",,41.627906828938,-0.883010496871374,,,,,Europe/Madrid
17144,PA00473,"Gabriel Gombao N.º 31",,41.6281211739964,-0.881586409245979,,,,,Europe/Madrid
17146,PA00475,"Demetrio Galán Bergua / Colegio",,41.6469367547224,-0.913995315080005,,,,,Europe/Madrid
17147,PA00476,"D. Galán Bergua / Parque",,41.6492188226617,-0.916176838610235,,,,,Europe/Madrid
17148,PA00477,"García Arista N.º 16",,41.6593420031675,-0.876976158198906,,,,,Europe/Madrid
17149,PA00478,"García Lorca N.º 13",,41.6347057086427,-0.878479315483237,,,,,Europe/Madrid
17150,PA00479,"García Sánchez N.º 26",,41.6474948434926,-0.899399406738261,,,,,Europe/Madrid
17151,PA00480,"Gascón De Gotor N.º 4",,41.63958551798,-0.887402024777376,,,,,Europe/Madrid
17152,PA00481,"Gascón De Gotor N.º 26",,41.6385247092983,-0.88923465441158,,,,,Europe/Madrid
17153,PA00482,"Valle De Zuriza N.º 10",,41.6620316600603,-0.874904152195133,,,,,Europe/Madrid
17160,PA00489,"G. Gómez Avellaneda N.º 73",,41.6754355385248,-0.890743344504312,,,,,Europe/Madrid
17162,PA00491,"G. Gómez Avellaneda N.º 83",,41.6768993792485,-0.890723877866968,,,,,Europe/Madrid
17164,PA00493,"Valle De Broto / G.Gómez Avellaneda",,41.6648543460959,-0.886416898603374,,,,,Europe/Madrid
17168,PA00497,"Gran Vía N.º 11",,41.6461909423584,-0.887342987638375,,,,,Europe/Madrid
17176,PA00505,"Hernán Cortés N.º 6",,41.6494015333692,-0.888366318059047,,,,,Europe/Madrid
17178,PA00507,"Hernán Cortés N.º 35",,41.647686632569,-0.890615256780109,,,,,Europe/Madrid
17179,PA00508,"Ignacio Zapata / Ruste",,41.6617607025172,-0.858771694723832,,,,,Europe/Madrid
17181,PA00510,"P. Isabel La Católica N.º 3",,41.6338350041466,-0.902972332694812,,,,,Europe/Madrid
17184,PA00513,"P. Isabel La Católica N.º 18 / Pedro Iv",,41.6338570102259,-0.903278987958955,,,,,Europe/Madrid
17189,PA00518,"P. Isabel La Católica / Romareda",,41.6353955136085,-0.9011976592019,,,,,Europe/Madrid
17191,PA00520,"P. Isabel La Católica / Hospital Infantil",,41.6361750054528,-0.899812327610167,,,,,Europe/Madrid
17196,PA00525,"Jerónimo Cáncer N.º 24",,41.6529987289258,-0.928781094955782,,,,,Europe/Madrid
17198,PA00527,"Jesús Y María N.º 15",,41.6946544341929,-0.868661315607257,,,,,Europe/Madrid
17199,PA00528,"Jesús Y María N.º 61",,41.6937360002292,-0.866076616066948,,,,,Europe/Madrid
17200,PA00529,"Jesús Y María N.º 89",,41.693011268788,-0.864225545688157,,,,,Europe/Madrid
17201,PA00530,"Joaquín Sorolla  / Parque De La Memoria",,41.6332966515283,-0.878621760631511,,,,,Europe/Madrid
17203,PA00532,"Jorge Cocci N.º 17",,41.6466161239376,-0.869141153373343,,,,,Europe/Madrid
17205,PA00534,"Av. Puerta De Sancho N.º 3",,41.6602652670027,-0.902502085008387,,,,,Europe/Madrid
17208,PA00537,"Av. Juan Carlos I / Jardines De Taifá",,41.6392060647715,-0.907938989691896,,,,,Europe/Madrid
17209,PA00538,"Juan De La Cierva N.º 9",,41.6666640111654,-0.859329477285293,,,,,Europe/Madrid
17210,PA00539,"Juan De La Cierva N.º 29",,41.6716381576132,-0.861878442344598,,,,,Europe/Madrid
17212,PA00541,"Juan Pablo Bonet N.º 20",,41.6406391879005,-0.888647691810103,,,,,Europe/Madrid
17213,PA00542,"Juan Pablo Bonet N.º 23",,41.6404966205228,-0.88871658236853,,,,,Europe/Madrid
17214,PA00543,"Av. Juan Pablo Ii N.º 60",,41.6377586808155,-0.908103171926468,,,,,Europe/Madrid
17215,PA00544,"Av. Juan Pablo Ii / Centro Comercial",,41.640990359716,-0.910412355620755,,,,,Europe/Madrid
17216,PA00545,"La Salud / San Viator",,41.6271911484983,-0.875496875613014,,,,,Europe/Madrid
17217,PA00546,"Ctra. Peñaflor (Terminal)",,41.7624393403076,-0.794827875200002,,,,,Europe/Madrid
17218,PA00547,"Av. Puerta De Sancho N.º 8",,41.6596874546065,-0.90264734200708,,,,,Europe/Madrid
17219,PA00548,"Lapuyade N.º 3",,41.6362033443724,-0.884048906535105,,,,,Europe/Madrid
17220,PA00549,"Lapuyade N.º 43",,41.6347854463573,-0.881380381277692,,,,,Europe/Madrid
17221,PA00550,"Lasierra Purroy N.º 104",,41.6271902786714,-0.883547498100529,,,,,Europe/Madrid
17222,PA00551,"López De Luna N.º 13",,41.6456163790045,-0.902805753489556,,,,,Europe/Madrid
17223,PA00552,"Luciano Gracia / Campus Río Ebro",,41.6835448346956,-0.890062467428958,,,,,Europe/Madrid
17225,PA00554,"Luciano Gracia / Rotonda De Juslibol",,41.6862433201048,-0.889878396265029,,,,,Europe/Madrid
17226,PA00555,"Luciano Gracia / Rotonda De Juslibol",,41.6864453610671,-0.889627450660924,,,,,Europe/Madrid
17227,PA00556,"Lugo N.º 134",,41.6263798079227,-0.880110298372497,,,,,Europe/Madrid
17229,PA00558,"Luis Vives N.º 9",,41.6384261018863,-0.895759227895884,,,,,Europe/Madrid
17230,PA00559,"Manuel De Falla N.º 4",,41.6552929101884,-0.919370012539533,,,,,Europe/Madrid
17231,PA00560,"Manuel Lasala N.º 44",,41.6375055541822,-0.897136556771168,,,,,Europe/Madrid
17232,PA00561,"María Zambrano N.º 16 / Pablo Neruda",,41.6692346697344,-0.888624188623699,,,,,Europe/Madrid
17236,PA00565,"María Zambrano N.º 48",,41.6744473594792,-0.889332232558196,,,,,Europe/Madrid
17245,PA00574,"Mariano Barbasán N.º 13",,41.6421526173897,-0.891259665795784,,,,,Europe/Madrid
17246,PA00575,"Mariano Baselga N.º 11",,41.6610999415527,-0.877673002683934,,,,,Europe/Madrid
17247,PA00576,"Marqués De La Cadena N.º 57 / Plaza Mozart",,41.6629053940172,-0.865833593666899,,,,,Europe/Madrid
17251,PA00580,"Marqués De La Cadena / Plaza Mozart",,41.6629844339434,-0.865558839392436,,,,,Europe/Madrid
17252,PA00581,"Marqués De La Cadena / Puente De La Unión",,41.6545356235511,-0.860989925359589,,,,,Europe/Madrid
17253,PA00582,"Melilla / Joaquín Sorolla",,41.633643997839,-0.878296996173435,,,,,Europe/Madrid
17254,PA00583,"Melilla / Escultor Salas",,41.6327237230641,-0.876780700978493,,,,,Europe/Madrid
17255,PA00584,"Miguel Servet N.º 13",,41.6475738486695,-0.874112552823725,,,,,Europe/Madrid
17256,PA00585,"Miguel Servet N.º 28",,41.6475242378616,-0.874263004687907,,,,,Europe/Madrid
17257,PA00586,"Miguel Servet N.º 37",,41.6458693414963,-0.871774903877064,,,,,Europe/Madrid
17258,PA00587,"Miguel Servet N.º 57",,41.6448096382544,-0.870608939797908,,,,,Europe/Madrid
17259,PA00588,"Miguel Servet N.º 60",,41.6456880324229,-0.871760870042403,,,,,Europe/Madrid
17260,PA00589,"Miguel Servet N.º 71 / Minas",,41.64323559179,-0.86911684325998,,,,,Europe/Madrid
17261,PA00590,"Miguel Servet N.º 86",,41.6442714701756,-0.870212174080492,,,,,Europe/Madrid
17262,PA00591,"Miguel Servet / Francisco Quevedo",,41.6408312409518,-0.86695753750706,,,,,Europe/Madrid
17264,PA00593,"Miguel Servet N.º 122",,41.6424010981929,-0.868542880714771,,,,,Europe/Madrid
17265,PA00594,"Miguel Servet N.º 123 / Padre Chaminade",,41.6388338356486,-0.865330841498843,,,,,Europe/Madrid
17269,PA00598,"Cochera Avanza",,41.632297954625,-0.858349348157494,,,,,Europe/Madrid
17270,PA00599,"Miguel Servet N.º 199",,41.6327497013882,-0.859774004525353,,,,,Europe/Madrid
17271,PA00600,"Miguel Servet N.º 204",,41.6376960209518,-0.864671077617818,,,,,Europe/Madrid
17272,PA00601,"Miguel Servet / 3er Cinturón",,41.6354844647375,-0.862706424272918,,,,,Europe/Madrid
17273,PA00602,"Miguel Servet / Belchite",,41.6413262130863,-0.86761720234659,,,,,Europe/Madrid
17275,PA00604,"Nuestra Señora De Los ángeles/ Vía Hispanidad",,41.6438732673443,-0.916510307538873,,,,,Europe/Madrid
17276,PA00605,"Miguel Servet N.º 147",,41.6365037652276,-0.863508069881751,,,,,Europe/Madrid
17277,PA00606,"Monte Perdido / María Domínguez Remón",,41.6731343934684,-0.872849810548515,,,,,Europe/Madrid
17278,PA00607,"Monte Perdido N.º 38 /J.L Lacruz",,41.6729656657585,-0.87270032770944,,,,,Europe/Madrid
17279,PA00608,"Numancia / Maria Blasco",,41.6607722347122,-0.857896122563249,,,,,Europe/Madrid
17280,PA00609,"Oviedo N.º 175",,41.6257121565784,-0.87792609276441,,,,,Europe/Madrid
17281,PA00610,"Pablo Parellada N.º 27",,41.6267978320391,-0.880643499225223,,,,,Europe/Madrid
17282,PA00611,"Pablo Ruiz Picasso N.º 2",,41.6731638521389,-0.878251504536268,,,,,Europe/Madrid
17283,PA00612,"Pablo Ruiz Picasso N.º 5",,41.6729014856364,-0.878837176036128,,,,,Europe/Madrid
17286,PA00615,"Pablo Ruiz Picasso N.º 34",,41.6732251617878,-0.88830286311456,,,,,Europe/Madrid
17287,PA00616,"Pablo Ruiz Picasso N.º 35",,41.6729475893899,-0.888438499852882,,,,,Europe/Madrid
17288,PA00617,"Parque De Atracciones",,41.6222738091817,-0.900323436533505,,,,,Europe/Madrid
17290,PA00619,"Sigües / Parque De Delicias",,41.6463428388759,-0.912775236661626,,,,,Europe/Madrid
17291,PA00620,"Pascuala Perié N.º 2",,41.6624531702179,-0.863511331156605,,,,,Europe/Madrid
17294,PA00623,"Pedro Iii / Asín Y Palacios",,41.6368768345987,-0.90529419714493,,,,,Europe/Madrid
17296,PA00625,"Pedro Porter N.º 5",,41.6528096071696,-0.926761381148993,,,,,Europe/Madrid
17297,PA00626,"Valle De Oza / Peña Oroel",,41.6639356332977,-0.87546087433391,,,,,Europe/Madrid
17298,PA00627,"Las Pleyades / Berenice",,41.6396103097558,-0.935250958207413,,,,,Europe/Madrid
17299,PA00628,"P. Calanda N.º 20",,41.6529775767763,-0.904254340441034,,,,,Europe/Madrid
17301,PA00630,"P. Cristobal Colón N.º 2",,41.6336393309573,-0.885693694609428,,,,,Europe/Madrid
17302,PA00631,"P. Cristobal Colón N.º 14",,41.6338236540909,-0.888729201403717,,,,,Europe/Madrid
17303,PA00632,"P. De La Constitución N.º 11 / Plaza Aragón",,41.6480010608406,-0.883673656326207,,,,,Europe/Madrid
17304,PA00633,"P. De La Constitución N.º 16 / San Ignacio De Loyola",,41.6477358301257,-0.88177900207602,,,,,Europe/Madrid
17305,PA00634,"P. De La Constitución N.º 33 / Plaza De Los Sitios",,41.6476066818588,-0.880207162204782,,,,,Europe/Madrid
17306,PA00635,"P. De Cuéllar N.º 20 / Iglesia",,41.634346300978,-0.884952197657122,,,,,Europe/Madrid
17307,PA00636,"P. De Cuéllar N.º 29",,41.6378752684998,-0.884247919521611,,,,,Europe/Madrid
17308,PA00637,"P. De Cuéllar N.º 47",,41.6360776149215,-0.884493927454591,,,,,Europe/Madrid
17309,PA00638,"P. De Cuéllar / San Fernando",,41.6345924597914,-0.884699739260288,,,,,Europe/Madrid
17310,PA00639,"P. De Cuéllar / Lapuyade",,41.6366166063984,-0.884655195248355,,,,,Europe/Madrid
17311,PA00640,"P. De Cuéllar / Parque Pignatelli",,41.6385735141753,-0.885470776733344,,,,,Europe/Madrid
17312,PA00641,"P. De Los Plátanos N.º 10",,41.6061604476607,-0.823545987943306,,,,,Europe/Madrid
17314,PA00643,"Ctra. Castellón / Rotonda Valmadrid",,41.605794159458,-0.828766159788982,,,,,Europe/Madrid
17315,PA00644,"P. Del Canal N.º 47",,41.6303215278925,-0.88032293321268,,,,,Europe/Madrid
17316,PA00645,"P.Tierno Galván / E. Pérez Vidal",,41.6289791860676,-0.873354941886359,,,,,Europe/Madrid
17317,PA00646,"P.Duque De Alba / Sarrión",,41.6231216173044,-0.894180988614737,,,,,Europe/Madrid
17318,PA00647,"P. Duque De Alba / Glorieta",,41.6201545851732,-0.901906136906289,,,,,Europe/Madrid
17319,PA00648,"P. Duque De Alba / Monumento A La Legión",,41.6224398344554,-0.900259005079863,,,,,Europe/Madrid
17320,PA00649,"P. Duque De Alba / Velódromo (Dir.P.Atracc.)",,41.6227573561236,-0.897890854371114,,,,,Europe/Madrid
17321,PA00650,"P. Duque De Alba / Velódromo (Dir.Cementerio)",,41.6226719270249,-0.89796969244986,,,,,Europe/Madrid
17322,PA00651,"P. Echegaray Y Caballero / S. Minguijón",,41.6509431825546,-0.860234339038423,,,,,Europe/Madrid
17323,PA00652,"P. Echegaray Y Caballero N.º 12",,41.6586795316947,-0.889617787932842,,,,,Europe/Madrid
17324,PA00653,"P. Echegaray Y Caballero / Colegio",,41.658035148818,-0.885184101200449,,,,,Europe/Madrid
17325,PA00654,"P. Echegaray Y Caballero N.º 112",,41.655689003763,-0.875050827004318,,,,,Europe/Madrid
17330,PA00659,"P. Echegaray Y Caballero / Hospedería",,41.6574187953394,-0.879271895416829,,,,,Europe/Madrid
17331,PA00660,"P. Echegaray Y Caballero / Puente Del Pilar",,41.6540776424821,-0.870488134313462,,,,,Europe/Madrid
17335,PA00664,"P. Independencia N.º 24",,41.6502878307597,-0.883001154836763,,,,,Europe/Madrid
17337,PA00666,"P. Independencia N.º 25",,41.6502533795546,-0.882691690698664,,,,,Europe/Madrid
17340,PA00669,"P. Pamplona N.º 4 / Plaza Paraiso",,41.648370104271,-0.886484607157377,,,,,Europe/Madrid
17341,PA00670,"P. Infantes De  España N.º 1 / Vía Ibérica",,41.6272867411158,-0.907837933579669,,,,,Europe/Madrid
17342,PA00671,"P. Reyes De Aragón N.º 14",,41.6221568138597,-0.904577949871521,,,,,Europe/Madrid
17343,PA00672,"P. Infantes De España / Ies V. Del Pilar",,41.6246444493088,-0.90690568190427,,,,,Europe/Madrid
17344,PA00673,"P. Mª Agustín N.º 7 / Puerta Del Carmen",,41.6501060278374,-0.888677390757413,,,,,Europe/Madrid
17345,PA00674,"P. Mª Agustín N.º 12 / C.M.E. Ramón Y Cajal",,41.6508559554122,-0.889543975037444,,,,,Europe/Madrid
17346,PA00675,"P. María Agustín N.º 26 / Edif. Pignatelli",,41.6519976124594,-0.891215631382587,,,,,Europe/Madrid
17347,PA00676,"P. María Agustín N.º 37",,41.6514434290526,-0.891025574389044,,,,,Europe/Madrid
17349,PA00678,"P. María Agustín N.º 62",,41.6555648310369,-0.893554285066049,,,,,Europe/Madrid
17350,PA00679,"P. María Agustín N.º 67",,41.6548525334554,-0.893704102749609,,,,,Europe/Madrid
17352,PA00681,"P. Pamplona N.º 1 / Plaza Paraíso",,41.6480616613235,-0.886639715465921,,,,,Europe/Madrid
17353,PA00682,"P. Pamplona / Puerta Del Carmen",,41.6493472376933,-0.887152987400147,,,,,Europe/Madrid
17355,PA00684,"P. Mariano Renovales N.º 10",,41.6355993921338,-0.893356383896,,,,,Europe/Madrid
17356,PA00685,"P. Mariano Renovales / Av. De Los Bearneses",,41.6349843892871,-0.893063978721107,,,,,Europe/Madrid
17357,PA00686,"P. Infantes De España N.º 6",,41.6222680762407,-0.905227053966004,,,,,Europe/Madrid
17358,PA00687,"P. Reyes De Aragon N.º 18 / Ies V. Del Pilar",,41.6246447712902,-0.906474690173269,,,,,Europe/Madrid
17359,PA00688,"P. Reyes De Aragón N.º 24",,41.6270265322058,-0.907297530421472,,,,,Europe/Madrid
17360,PA00689,"P. Ruiseñores N.º 39",,41.6364919892088,-0.88901084801681,,,,,Europe/Madrid
17361,PA00690,"P. De Sagasta N.º 11 / Bolonia",,41.6435540534493,-0.885809085917506,,,,,Europe/Madrid
17362,PA00691,"P. De Sagasta N.º 14 / Plaza Paraiso",,41.6457186261087,-0.885863927217764,,,,,Europe/Madrid
17363,PA00692,"P. De Sagasta N.º 31 / Av. Tenor Fleta",,41.6415642203541,-0.886099994893513,,,,,Europe/Madrid
17364,PA00693,"P. De Sagasta N.º 32 / Miguel De Cervantes",,41.6436716623029,-0.886132993272946,,,,,Europe/Madrid
17366,PA00695,"P. De Sagasta N.º 51 / Cno. De Las Torres",,41.6396450163799,-0.886178633414035,,,,,Europe/Madrid
17367,PA00696,"P. De Sagasta N.º 62 / Moncasi",,41.6406594834306,-0.886614327897318,,,,,Europe/Madrid
17368,PA00697,"Glorieta De Sasera",,41.6456911251749,-0.885471163241446,,,,,Europe/Madrid
17369,PA00698,"P. De Teruel N.º 24",,41.6485479281555,-0.891197580496184,,,,,Europe/Madrid
17370,PA00699,"P. Tierno Galván N.º 30",,41.6304448582283,-0.881250905687319,,,,,Europe/Madrid
17371,PA00700,"P. Tierno Galván / Honorio García Condoy",,41.6326434136978,-0.882193840744264,,,,,Europe/Madrid
17373,PA00702,"P. Echegaray Y Caballero / Postigo Del Ebro",,41.6583344176591,-0.886115719810543,,,,,Europe/Madrid
17374,PA00703,"P. Echegaray Y Caballero Fte. R. Celma",,41.6588425031066,-0.88981643658615,,,,,Europe/Madrid
17375,PA00704,"Puente De La Unión / P. Echegaray Y Caballero",,41.6513952308817,-0.864206479954896,,,,,Europe/Madrid
17376,PA00705,"Camino Puente Virrey / P. Remacha",,41.6389006048082,-0.8739697260357,,,,,Europe/Madrid
17377,PA00706,"Av. De América / 3er Cinturón",,41.6252765883646,-0.887119978887124,,,,,Europe/Madrid
17378,PA00707,"Plaza Aragón N.º 1",,41.6486471112101,-0.884250996061885,,,,,Europe/Madrid
17381,PA00710,"Plaza Aragón / Capitania",,41.6486988464046,-0.884669595742309,,,,,Europe/Madrid
17383,PA00712,"Plaza Del Portillo",,41.6555368058997,-0.892093589707254,,,,,Europe/Madrid
17385,PA00714,"Conde De Aranda / Plaza Del Portillo",,41.6558510302963,-0.892227632169816,,,,,Europe/Madrid
17386,PA00715,"Plaza Diego Velazquez / Parque Pignatelli",,41.6384671710512,-0.886509759675564,,,,,Europe/Madrid
17387,PA00716,"P. Fernando El Católico N.º 70",,41.6382795510763,-0.897668117192588,,,,,Europe/Madrid
17390,PA00719,"Plaza De España",,41.6519184964857,-0.880661858086044,,,,,Europe/Madrid
17391,PA00720,"Plaza De España",,41.6520078339915,-0.880843127518043,,,,,Europe/Madrid
17393,PA00722,"Ctra. Castellón / P. Ind. San Valero N.º 2",,41.6151266945382,-0.840457445153661,,,,,Europe/Madrid
17394,PA00723,"Av. De La Constitución (La Cartuja)",,41.6065265261923,-0.825997558367219,,,,,Europe/Madrid
17400,PA00729,"Plaza Europa",,41.6596160471019,-0.89285275386757,,,,,Europe/Madrid
17401,PA00730,"Plaza De Las Canteras",,41.6314625232158,-0.886138583726382,,,,,Europe/Madrid
17403,PA00732,"Plaza Mayor",,41.6942044935009,-0.901212929373088,,,,,Europe/Madrid
17406,PA00735,"P. Fernando El Católico N.º 31",,41.6416063863055,-0.894078842394159,,,,,Europe/Madrid
17412,PA00741,"Plaza San Miguel N.º 5",,41.649795675705,-0.876344680371334,,,,,Europe/Madrid
17414,PA00743,"P. Pamplona N.º 12",,41.6490060194821,-0.886909974576078,,,,,Europe/Madrid
17415,PA00744,"Plaza San Miguel",,41.6499980142171,-0.876028301780261,,,,,Europe/Madrid
17416,PA00745,"Plaza San Miguel",,41.6499200539667,-0.876269295177083,,,,,Europe/Madrid
17418,PA00747,"Francisca Millán Serrano N.º 20",,41.6425689433652,-0.928719977769284,,,,,Europe/Madrid
17419,PA00748,"Francisca Millán Serrano / M.A Blanco",,41.6405156074837,-0.931527569632043,,,,,Europe/Madrid
17420,PA00749,"Ramiro I De Aragón N.º 24",,41.6545010745453,-0.916417553626218,,,,,Europe/Madrid
17421,PA00750,"Ramón J. Sender N.º 4",,41.6562128341264,-0.918843672049724,,,,,Europe/Madrid
17424,PA00753,"Rodrigo Rebolledo N.º 7",,41.6462833691207,-0.865057416940379,,,,,Europe/Madrid
17425,PA00754,"Rodrigo Rebolledo N.º 33",,41.6460333538415,-0.862497089549261,,,,,Europe/Madrid
17426,PA00755,"Rodrigo Rebolledo / Fray Luis Urbano",,41.6456757507611,-0.858883235257945,,,,,Europe/Madrid
17427,PA00756,"Villa De Pau N.º 2",,41.6292521272812,-0.880003773839703,,,,,Europe/Madrid
17428,PA00757,"Villa De Pau N.º 14",,41.6278929991507,-0.880346549858684,,,,,Europe/Madrid
17429,PA00758,"Villa De Pau N.º 19",,41.6277454605911,-0.878911007109222,,,,,Europe/Madrid
17430,PA00759,"Villa De Pau / Puente",,41.6293614798351,-0.87864735813674,,,,,Europe/Madrid
17431,PA00760,"Salvador Minguijón N.º 10",,41.6457747099475,-0.861932146250716,,,,,Europe/Madrid
17434,PA00763,"Salvador Minguijón N.º 40",,41.6489367713755,-0.86127923077721,,,,,Europe/Madrid
17436,PA00765,"San Alberto Magno / C.S. Oliver",,41.6521720620056,-0.930032997301443,,,,,Europe/Madrid
17437,PA00766,"San Antonio De Padua / Plaza Gallur",,41.6265274890604,-0.876857679982475,,,,,Europe/Madrid
17439,PA00768,"San Juan De La Cruz N.º 2",,41.641572849339,-0.893485118947732,,,,,Europe/Madrid
17440,PA00769,"San Juan De La Cruz N.º 26",,41.6409519269534,-0.891296963014473,,,,,Europe/Madrid
17441,PA00770,"Av. San Juan De La Peña N.º 4",,41.6613485307006,-0.873156783997855,,,,,Europe/Madrid
17442,PA00771,"Av. San Juan De La Peña N.º 29",,41.6638684050056,-0.872178782290255,,,,,Europe/Madrid
17443,PA00772,"Av. San Juan De La Peña / Más De Las Matas",,41.6647934387238,-0.871538026281712,,,,,Europe/Madrid
17446,PA00775,"Av. San Juan De La Peña N.º 123",,41.6700377163373,-0.871546751324768,,,,,Europe/Madrid
17448,PA00777,"Av. San Juan De La Peña N.º 167 / Del Somport",,41.6740911654858,-0.871368998117634,,,,,Europe/Madrid
17450,PA00779,"Av. San Juan De La Peña N.º 182",,41.6756035053055,-0.871109664849576,,,,,Europe/Madrid
17454,PA00783,"Av. San Juan De La Peña N.º 144",,41.6705812284398,-0.871213922398991,,,,,Europe/Madrid
17456,PA00785,"San Viator N.º 42",,41.6265654516649,-0.875035760234621,,,,,Europe/Madrid
17458,PA00787,"San Vicente De Paúl N.º 3",,41.6512591625131,-0.876878016454647,,,,,Europe/Madrid
17459,PA00788,"San Vicente De Paúl N.º 27",,41.6532086649271,-0.875176000484575,,,,,Europe/Madrid
17461,PA00790,"San Vicente De Paúl N.º 47",,41.6547673902483,-0.873797340904606,,,,,Europe/Madrid
17462,PA00791,"Sancho Lezcano / Av. San José",,41.6337145035048,-0.881310170253781,,,,,Europe/Madrid
17463,PA00792,"Casanova N.º 3",,41.6555888054148,-0.904378666093019,,,,,Europe/Madrid
17465,PA00794,"Santander N.º 27",,41.6490768342979,-0.8973531614784,,,,,Europe/Madrid
17466,PA00795,"Santander N.º 34",,41.6491970164079,-0.897251449010342,,,,,Europe/Madrid
17467,PA00796,"Sixto Celorrio N.º 58",,41.6611926037938,-0.875827247410074,,,,,Europe/Madrid
17469,PA00798,"Sobrarbe N.º 3",,41.6587475137551,-0.874448031301459,,,,,Europe/Madrid
17470,PA00799,"Sobrarbe N.º 24",,41.6600669544171,-0.873767755783252,,,,,Europe/Madrid
17471,PA00800,"Sobrarbe N.º 55",,41.6605066651186,-0.87374788968832,,,,,Europe/Madrid
17472,PA00801,"León Moyano N.º 19",,41.6268911306963,-0.877319051810325,,,,,Europe/Madrid
17474,PA00803,"Tomás Bretón N.º 12",,41.6439070001141,-0.894300582011895,,,,,Europe/Madrid
17477,PA00806,"Tulipán N.º 67",,41.6381382401289,-0.933062689237317,,,,,Europe/Madrid
17479,PA00808,"Unceta N.º 33",,41.6521377098938,-0.901848679397613,,,,,Europe/Madrid
17480,PA00809,"Unceta N.º 101",,41.649307185262,-0.900554652109378,,,,,Europe/Madrid
17482,PA00811,"Valle De Broto N.º 18 / Av. Salvador Allende",,41.6667723433153,-0.878084191323351,,,,,Europe/Madrid
17483,PA00812,"Valle De Broto / Ceoe",,41.6631790574181,-0.888270222053704,,,,,Europe/Madrid
17484,PA00813,"Valle De Broto / Av. José Atarés",,41.6633015504249,-0.88863252320074,,,,,Europe/Madrid
17487,PA00816,"Valle De Broto / Parque Del Tío Jorge",,41.666348510414,-0.878785317201771,,,,,Europe/Madrid
17488,PA00817,"Valle De Broto / Virginia Woolf",,41.6645106238005,-0.887392585731338,,,,,Europe/Madrid
17492,PA00821,"Vía Hispanidad / Duquesa Villahermosa",,41.6443448703135,-0.915835076375838,,,,,Europe/Madrid
17493,PA00822,"Vía Hispanidad / Villa De Andorra",,41.6451028775176,-0.916364298879531,,,,,Europe/Madrid
17494,PA00823,"Vía Hispanidad N.º 73 / Nuestra Señora De Los ángeles",,41.6440873157427,-0.916394477801101,,,,,Europe/Madrid
17495,PA00824,"Vía Hispanidad N.º 73",,41.6450115708214,-0.916645705115552,,,,,Europe/Madrid
17496,PA00825,"Vía Hispanidad N.º 77",,41.6462339610822,-0.917173437922878,,,,,Europe/Madrid
17497,PA00826,"Vía Hispanidad N.º 80",,41.6463902849384,-0.916917977109973,,,,,Europe/Madrid
17498,PA00827,"Vía Hispanidad N.º 83",,41.6480182622198,-0.917972944745076,,,,,Europe/Madrid
17499,PA00828,"Vía Hispanidad N.º 99",,41.6518326146248,-0.919496520435414,,,,,Europe/Madrid
17500,PA00829,"Vía Hispanidad N.º 100 / Los Enlaces",,41.6487907259035,-0.918013301183912,,,,,Europe/Madrid
17501,PA00830,"Vía Hispanidad N.º 142",,41.6560758858024,-0.920724300644541,,,,,Europe/Madrid
17503,PA00832,"Vía Hispanidad / Edif. Seminario",,41.6361240113919,-0.912285107640151,,,,,Europe/Madrid
17506,PA00835,"Rallo Lahoz / Vía Hispanidad",,41.6555851600566,-0.921543885026116,,,,,Europe/Madrid
17508,PA00837,"Tomás Gabasa / Plaza De La Ermita",,41.6316309997573,-0.91122664944013,,,,,Europe/Madrid
17509,PA00838,"Av. De Montañana / Rotonda I.E.S. Itaca",,41.6730876186033,-0.832274774663977,,,,,Europe/Madrid
17510,PA00839,"Vía Hispanidad N.º 110",,41.6497595663729,-0.91793477709243,,,,,Europe/Madrid
17512,PA00841,"Vía Ibérica N.º 20 / Colegio",,41.6272680054998,-0.908994668190406,,,,,Europe/Madrid
17514,PA00843,"Vía Ibérica N.º 33 / P. Infantes De España",,41.6273771679053,-0.908640995070918,,,,,Europe/Madrid
17515,PA00844,"Vía Ibérica N.º 38 / Argualas",,41.6256115087876,-0.910347993701305,,,,,Europe/Madrid
17520,PA00849,"Vía Pignatelli N.º 7",,41.6330844001946,-0.885688664864164,,,,,Europe/Madrid
17521,PA00850,"Vía Pignatelli N.º 61",,41.6335077101078,-0.889955863628386,,,,,Europe/Madrid
17522,PA00851,"Vía Univérsitas N.º 10",,41.645232501705,-0.906959498084682,,,,,Europe/Madrid
17523,PA00852,"Vía Univérsitas N.º 17",,41.6450079983024,-0.907013991486827,,,,,Europe/Madrid
17524,PA00853,"Vía Univérsitas N.º 81",,41.6517773328616,-0.910266163152754,,,,,Europe/Madrid
17527,PA00856,"Vía Univérsitas / Av. De Madrid",,41.651748807347,-0.910036305731267,,,,,Europe/Madrid
17528,PA00857,"Vicente Blanco / Centro Comercial",,41.6583185544187,-0.919677828484098,,,,,Europe/Madrid
17529,PA00858,"Villa De Ansó / Antigua Prisión",,41.6280415529059,-0.88686546356873,,,,,Europe/Madrid
17530,PA00859,"Villa De Ansó / Fray Julián Garcés",,41.628150996285,-0.887496158708303,,,,,Europe/Madrid
17531,PA00860,"Villa De Ansó / Avenida De América",,41.627928937953,-0.886596697486936,,,,,Europe/Madrid
17532,PA00861,"Violante De Hungría N.º 5",,41.6387429304764,-0.900933187136558,,,,,Europe/Madrid
17533,PA00862,"Violante De Hungría / Facultad De Ciencias Sociales",,41.6422805120797,-0.905613793744004,,,,,Europe/Madrid
17534,PA00863,"Violante De Hungría / Palacio De Deportes",,41.6398592341116,-0.902625395696522,,,,,Europe/Madrid
17535,PA00864,"Violante De Hungría / Escuela De Idiomas",,41.6420096185214,-0.905112347515577,,,,,Europe/Madrid
17536,PA00865,"Violante De Hungría / Palacio De Deportes",,41.6402693459716,-0.90390771703379,,,,,Europe/Madrid
17537,PA00866,"Zafiro / Muza Ben Zeya",,41.6230460572604,-0.875896989147309,,,,,Europe/Madrid
17538,PA00867,"Zaragoza N.º 54",,41.6909643545427,-0.896257962530756,,,,,Europe/Madrid
17539,PA00868,"Zaragoza / El Bar",,41.6894032922359,-0.893835620203777,,,,,Europe/Madrid
17540,PA00869,"Zaragoza N.º 32",,41.6896371848321,-0.894165736282546,,,,,Europe/Madrid
17541,PA00870,"Zaragoza N.º 14",,41.688745754676,-0.891983970062167,,,,,Europe/Madrid
17542,PA00871,"Zaragoza / Torre Genoveva",,41.688329837848,-0.891267993178318,,,,,Europe/Madrid
17543,PA00872,"Zaragoza / Antigua Báscula",,41.6907009197685,-0.896188192529415,,,,,Europe/Madrid
17544,PA00873,"Zaragoza N.º 103 / Colegio",,41.6926338578223,-0.898285766696267,,,,,Europe/Madrid
17545,PA00874,"Zaragoza N.º 94 / Colegio",,41.6926014607073,-0.898055741849262,,,,,Europe/Madrid
17549,PA00878,"Fray Julián Garcés N.º 18",,41.6309591321024,-0.886590400519254,,,,,Europe/Madrid
17550,PA00879,"Juan De La Cierva N.º 25",,41.6694934402256,-0.860797133841946,,,,,Europe/Madrid
17551,PA00880,"Complejo Funerario",,41.6206019063129,-0.888654045674071,,,,,Europe/Madrid
17552,PA00881,"Av. De Montañana /  Ies ítaca",,41.6727146347756,-0.83175596235211,,,,,Europe/Madrid
17553,PA00882,"Cuarta Avenida N.º 35",,41.6252072773307,-0.874734301636015,,,,,Europe/Madrid
17554,PA00883,"Camino De Los Molinos N.º 150",,41.6863374993237,-0.865770495402695,,,,,Europe/Madrid
17555,PA00884,"Monte Perdido N.º 4",,41.6711509251805,-0.872739369268476,,,,,Europe/Madrid
17557,PA00886,"Villa De Pau / Parque De La Paz",,41.6291182292848,-0.878264789566897,,,,,Europe/Madrid
17558,PA00887,"Fray Julián Garcés / Rne",,41.6235508345292,-0.889544000523292,,,,,Europe/Madrid
17559,PA00888,"Fray Julian Garces / Cementerio",,41.622119967776,-0.889733483978005,,,,,Europe/Madrid
17560,PA00889,"Concepción / Miguel Servet",,41.6476149981433,-0.874776661096132,,,,,Europe/Madrid
17562,PA00891,"Sigües / Alcalá De La Selva",,41.6461420624796,-0.912754554909062,,,,,Europe/Madrid
17563,PA00892,"De La Mesta / Martín Díez De Aux",,41.6297357901203,-0.945001901943504,,,,,Europe/Madrid
17564,PA00893,"Camino Del Pilón / Ibón De Armeña",,41.6588878754477,-0.933911105355272,,,,,Europe/Madrid
17565,PA00894,"Camino Del Pilón / Lagos De Coronas",,41.6587812686691,-0.934205071063592,,,,,Europe/Madrid
17566,PA00895,"Camino De Los Molinos N.º 54",,41.6781495683765,-0.868112720296923,,,,,Europe/Madrid
17567,PA00896,"Camino De Los Molinos Fte. N.º 165",,41.6838945899407,-0.866558407787046,,,,,Europe/Madrid
17568,PA00897,"Av. San Gregorio / Olímpica",,41.6900271975544,-0.863307424571225,,,,,Europe/Madrid
17569,PA00898,"Camino De Los Molinos N.º 165",,41.6838582117528,-0.866733193223758,,,,,Europe/Madrid
17570,PA00899,"Camino De Los Molinos N.º 75",,41.6781560042147,-0.868292664655186,,,,,Europe/Madrid
17572,PA00901,"Fanlo N.º 12",,41.6333018247702,-0.91569079262401,,,,,Europe/Madrid
17573,PA00902,"Gastón De Bearne / Residencia",,41.633396422174,-0.913878372154298,,,,,Europe/Madrid
17574,PA00903,"Gastón De Bearne N.º 17",,41.6301584914486,-0.91132257146042,,,,,Europe/Madrid
17575,PA00904,"Embarcadero N.º 28",,41.6302668313821,-0.909159504803152,,,,,Europe/Madrid
17576,PA00905,"Vía Ibérica / Hospital Militar",,41.630824835341,-0.905911332730197,,,,,Europe/Madrid
17577,PA00906,"Vía Ibérica N.º 2",,41.6309358299948,-0.906144998877715,,,,,Europe/Madrid
17578,PA00907,"Argualas N.º 18",,41.6268908924781,-0.913917758335802,,,,,Europe/Madrid
17579,PA00908,"Marcelino álvarez N.º 55",,41.6293803664139,-0.914346715964,,,,,Europe/Madrid
17580,PA00909,"Fanlo / Encinacorba",,41.6309524744381,-0.917108257949977,,,,,Europe/Madrid
17581,PA00910,"Camino De Los Molinos N.º 150",,41.6866360796213,-0.865533695485179,,,,,Europe/Madrid
17582,PA00911,"Betore Bergua N.º 1",,41.655164573315,-0.856547196250504,,,,,Europe/Madrid
17583,PA00912,"Lagos De Coronas N.º 39",,41.6520058763659,-0.933431176077439,,,,,Europe/Madrid
17584,PA00913,"Lagos De Coronas / Campo De Fútbol",,41.654676165836,-0.93428048240027,,,,,Europe/Madrid
17585,PA00914,"Lagos De Coronas / Ibón De Astún",,41.6572930883951,-0.933475558876794,,,,,Europe/Madrid
17587,PA00916,"Lagos De Coronas / La Camisera",,41.6545561774688,-0.934454494597367,,,,,Europe/Madrid
17621,PA00950,"Orión N.º 6",,41.6420571002267,-0.933815858670061,,,,,Europe/Madrid
17622,PA00951,"Ronda Ibón De Plan / Supermercado",,41.6566294355539,-0.937638393622999,,,,,Europe/Madrid
17623,PA00952,"Ronda Ibón De Plan N.º 20",,41.6504839747968,-0.934800097876303,,,,,Europe/Madrid
17655,PA00984,"Av. De Montañana / Torre Cortés",,41.6795281045458,-0.829652432677277,,,,,Europe/Madrid
17656,PA00985,"Plaza Emperador Carlos V",,41.6380906453328,-0.89897577351682,,,,,Europe/Madrid
17657,PA00986,"La Fragua N.º 15",,41.6872391755638,-0.877829190921697,,,,,Europe/Madrid
17664,PA00993,"La Fragua / Parque Tapices De Goya",,41.6892140672408,-0.877758789007544,,,,,Europe/Madrid
17666,PA00995,"P.I Tchaikovsky / J. Strauss",,41.6344713319218,-0.942988998428034,,,,,Europe/Madrid
17667,PA00996,"P.I Tchaikovsky / G.F.Haendel",,41.6338976836324,-0.942715577401819,,,,,Europe/Madrid
17668,PA00997,"De La Mesta / Avenida De La Ilustración",,41.6296311719826,-0.941753659947305,,,,,Europe/Madrid
17669,PA00998,"Av. De La Ilustración / E. De Aragón",,41.6279541429884,-0.941844497174897,,,,,Europe/Madrid
17670,PA00999,"Ermesinda De Aragón",,41.6302024700458,-0.942701857386227,,,,,Europe/Madrid
17671,PA01000,"Plaza Emperador Carlos V / Intercambiador",,41.6380070512247,-0.898679405081394,,,,,Europe/Madrid
17674,PA01003,"Av. De Cataluña / Plaza Mozart",,41.6626215045248,-0.8642658113008,,,,,Europe/Madrid
17676,PA01005,"Hospital Royo Villanova / Urgencias",,41.6920484225506,-0.862443860691938,,,,,Europe/Madrid
17680,PA01009,"Mesones De Isuela",,41.6276405011259,-0.891094148587985,,,,,Europe/Madrid
17681,PA01010,"Cuarte / Castillo De Loarre",,41.6290821879648,-0.891060473017831,,,,,Europe/Madrid
17682,PA01011,"Av. De Navarra / Centro Comercial",,41.6589138203589,-0.919320251953312,,,,,Europe/Madrid
17683,PA01012,"Av. Peñaflor N.º 106",,41.7611587342487,-0.795176496976185,,,,,Europe/Madrid
17684,PA01013,"Av. Peñaflor N.º 109",,41.7610828849985,-0.795351202833669,,,,,Europe/Madrid
17685,PA01014,"Av. Gómez Laguna / Parque De La Razón",,41.6269407174222,-0.920571465814504,,,,,Europe/Madrid
17696,PA01025,"P. De Los Olvidados / Luces De La Ciudad",,41.6214785231461,-0.919529674866732,,,,,Europe/Madrid
17697,PA01026,"Belle Epoque / Colegio",,41.6245819943928,-0.918616390699155,,,,,Europe/Madrid
17701,PA01030,"Av. Cesáreo Alierta / C.D.M. La Granja",,41.6373675396446,-0.868620679454726,,,,,Europe/Madrid
17702,PA01031,"Estación Delicias / Acceso Salidas",,41.6590230610524,-0.909576648541663,,,,,Europe/Madrid
17704,PA01033,"L.V Beethoven N.º 20 / Supermercado",,41.6346582565267,-0.945526041949902,,,,,Europe/Madrid
17705,PA01034,"L.V Beethoven / J.Turina",,41.6368689307288,-0.945560225114207,,,,,Europe/Madrid
17706,PA01035,"L.V Beethoven / F. Chopin",,41.6387020011918,-0.946580997885486,,,,,Europe/Madrid
17707,PA01036,"Johan Sebastian Bach / Clínica Montecanal",,41.6394396004189,-0.948580554963405,,,,,Europe/Madrid
17708,PA01037,"Johan Sebastian Bach N.º 65",,41.638397316555,-0.946673848644879,,,,,Europe/Madrid
17709,PA01038,"Johan Sebastian Bach N.º 53",,41.6366158647397,-0.945988904416421,,,,,Europe/Madrid
17710,PA01039,"Johan Sebastian Bach N.º 25 / Supermercado",,41.6345837420232,-0.94594828801361,,,,,Europe/Madrid
17711,PA01040,"Plaza De Las Canteras",,41.6315780422942,-0.885903086955147,,,,,Europe/Madrid
17712,PA01041,"Cuarta Avenida N.º 6",,41.624677515664,-0.880637131245923,,,,,Europe/Madrid
17713,PA01042,"Zafiro N.º 40",,41.6221311062632,-0.875993928586794,,,,,Europe/Madrid
17714,PA01043,"Puerto Venecia / Teatro Malibrán",,41.6086671345536,-0.89004787800159,,,,,Europe/Madrid
17737,PA01066,"Av .Gómez Laguna / Urbanización La Floresta",,41.6395937225081,-0.918174766437039,,,,,Europe/Madrid
17738,PA01067,"Av. Gómez Laguna Fte Hospital",,41.6286835050972,-0.922922167791712,,,,,Europe/Madrid
17740,PA01069,"Av. Gómez Laguna / Hospital",,41.6290511658181,-0.922853160931483,,,,,Europe/Madrid
17741,PA01070,"Av. Gómez Laguna / Depósitos",,41.6393486954911,-0.917649401428022,,,,,Europe/Madrid
17742,PA01071,"Plaza Mozart",,41.6626853273,-0.865128354114955,,,,,Europe/Madrid
17743,PA01072,"Muel N.º 11",,41.6595695373142,-0.869162693269014,,,,,Europe/Madrid
17745,PA01074,"Salvador Minguijón N.º 64",,41.6504454976431,-0.860981829250169,,,,,Europe/Madrid
17746,PA01075,"María Zambrano N.º 60",,41.6767980190483,-0.889307256433874,,,,,Europe/Madrid
17747,PA01076,"Violante De Hungría / Av. Gómez Laguna",,41.642468507086,-0.905787558610876,,,,,Europe/Madrid
17750,PA01079,"Hernán Cortés N.º 9",,41.6490308383406,-0.888565675627944,,,,,Europe/Madrid
17751,PA01084,"Ctra. Castellón / Pol. Emp. Miraflores",,41.613275936078,-0.838124292641662,,,,,Europe/Madrid
17752,PA01092,"P. Pamplona N.º 5",,41.6483365404814,-0.886832087832845,,,,,Europe/Madrid
17753,PA01093,"Los Pájaros",,41.6210788361751,-0.922854388541619,,,,,Europe/Madrid
17755,PA01095,"Un Américano En París N.º 17",,41.6224081921938,-0.928919581102597,,,,,Europe/Madrid
17756,PA01096,"La Ventana Indiscreta N.º 6",,41.6204504108699,-0.923770543066952,,,,,Europe/Madrid
17757,PA01097,"Estación Delicias / Acceso Estación Autobuses",,41.6594313213125,-0.911145548567706,,,,,Europe/Madrid
17758,PA01099,"Arquitecto La Figuera / Zalmedina",,41.6603178128369,-0.87896363998058,,,,,Europe/Madrid
17759,PA01100,"Camino Del Pilón N.º 141",,41.6588765997539,-0.944415491640584,,,,,Europe/Madrid
17760,PA01101,"Av. Gómez Laguna / Colegio",,41.6252088231441,-0.91728659267843,,,,,Europe/Madrid
17765,PA01106,"Av. Expo 2008 / Av. Pablo Gargallo",,41.6623175530246,-0.907948542600631,,,,,Europe/Madrid
17766,PA01107,"Av. Expo 2008 / Supermercado",,41.6624147496276,-0.907418786401523,,,,,Europe/Madrid
17767,PA01108,"Av. De Ranillas / Parque Empresarial",,41.6709454633645,-0.900823965609219,,,,,Europe/Madrid
17769,PA01118,"Camino Fuente De La Junquera Fte. Colegio",,41.6192776763948,-0.907478173130391,,,,,Europe/Madrid
17770,PA01119,"Camino Fuente De La Junquera N.º 72",,41.6172965718995,-0.909565360259095,,,,,Europe/Madrid
17771,PA01120,"Fuente De La Junquera",,41.6145919023432,-0.914243003565216,,,,,Europe/Madrid
17772,PA01121,"Camino Fuente De La Junquera / Colegio",,41.6192496823967,-0.907388186186311,,,,,Europe/Madrid
17773,PA01122,"Miguel Servet / Camino Enmedio",,41.6326675106834,-0.860072837249697,,,,,Europe/Madrid
17774,PA01123,"Francisco Rallo Lahoz / Anillo Verde",,41.6559828248816,-0.925266360161636,,,,,Europe/Madrid
17777,PA01126,"Anillo Verde / Colegio",,41.6567740100741,-0.924440969907226,,,,,Europe/Madrid
17779,PA01128,"Av. De Ranillas  / Palacio De Congresos",,41.6696517666963,-0.906950921213289,,,,,Europe/Madrid
17781,PA01131,"Diego Espés",,41.6383721509822,-0.863552623380643,,,,,Europe/Madrid
17782,PA01132,"Camino Cabaldós",,41.6403528315869,-0.869020836019381,,,,,Europe/Madrid
17785,PA01135,"Francisco De Quevedo",,41.6410744546646,-0.8659151009287,,,,,Europe/Madrid
17787,PA01138,"Principado De Morea",,41.6371140763603,-0.866556573605062,,,,,Europe/Madrid
17788,PA01139,"La Diligencia",,41.6247397645213,-0.938329894737906,,,,,Europe/Madrid
17789,PA01140,"Av. Pablo Gargallo N.º 116",,41.6622727482376,-0.904671405522312,,,,,Europe/Madrid
17791,PA01142,"Camino De Las Torres / Cdm Alberto Maestro",,41.6493721782036,-0.865259017376008,,,,,Europe/Madrid
17792,PA01143,"Camino De Las Torres N.º 4",,41.6475326690069,-0.871944600554088,,,,,Europe/Madrid
17793,PA01144,"Camino De Las Torres N.º 3",,41.6473071057788,-0.87166628106907,,,,,Europe/Madrid
17794,PA01145,"Camino De Las Torres / Silvestre Pérez",,41.6483796452311,-0.867759238976136,,,,,Europe/Madrid
17795,PA01146,"Camino De Las Torres / Cdm Alberto Maestro",,41.6494673817356,-0.864554330011506,,,,,Europe/Madrid
17796,PA01147,"Julián Sanz Ibáñez N.º 41",,41.6518132735184,-0.914994229939724,,,,,Europe/Madrid
17797,PA01148,"Julián Sanz Ibáñez N.º 13",,41.6524522370465,-0.912162347488226,,,,,Europe/Madrid
17799,PA01152,"Marcelino álvarez / Residencia",,41.6300629311069,-0.916727083648505,,,,,Europe/Madrid
17800,PA01153,"Brea De Aragón",,41.6520772567542,-0.91768750041794,,,,,Europe/Madrid
17802,PA01155,"Pablo Ruiz Picasso / G.Gómez Avellaneda",,41.6729522663084,-0.891717355247482,,,,,Europe/Madrid
17803,PA01156,"Av. Gómez Laguna / Punto Limpio",,41.6334742606902,-0.924393211041046,,,,,Europe/Madrid
17804,PA01157,"Av. Gómez Laguna / Cooperativa Taxi",,41.6334213814988,-0.923987342372315,,,,,Europe/Madrid
17805,PA01158,"Av. De Ranillas / Av. José Atarés",,41.671648930311,-0.899098955878496,,,,,Europe/Madrid
17806,PA01159,"Av. De Ranillas / Parque Del Agua",,41.6678913424407,-0.909318546749153,,,,,Europe/Madrid
17807,PA01160,"Av. De Ranillas / Puente Tercer Milenio",,41.6680639887305,-0.908964976464964,,,,,Europe/Madrid
17808,PA01161,"Av. De Ranillas / Ciudad De La Justicia",,41.6713315205783,-0.898847024046459,,,,,Europe/Madrid
17809,PA01162,"Av. Tiziano / Policía Local",,41.618667878047,-0.876874081552012,,,,,Europe/Madrid
17810,PA01163,"Av. Tiziano / G.Piranesi",,41.618829242399,-0.87614444479877,,,,,Europe/Madrid
17811,PA01164,"Ceuta / Colegio",,41.6329506497222,-0.87431655444049,,,,,Europe/Madrid
17812,PA01165,"Nuestra Señora De Los ángeles N.º 20",,41.6432924927789,-0.919295458414713,,,,,Europe/Madrid
17813,PA01166,"Nuestra Señora De Los ángeles N.º 7",,41.6432145326597,-0.919085781132206,,,,,Europe/Madrid
17815,PA01168,"Av. De Ranillas / Torre Del Agua",,41.6705205960081,-0.904392446012522,,,,,Europe/Madrid
17818,PA01171,"Teatro Malibran N.º 11",,41.610124041336,-0.889603477106942,,,,,Europe/Madrid
17820,PA01173,"Viridiana",,41.6172064575142,-0.924179117790424,,,,,Europe/Madrid
17822,PA01175,"Ciudadano Kane / C.S. Valdespartera",,41.621359322464,-0.923928862266755,,,,,Europe/Madrid
17823,PA01176,"Cantando Bajo La Lluvia",,41.623161932681,-0.928209407643634,,,,,Europe/Madrid
17824,PA01177,"Un Américano En París N.º 47",,41.62323346207,-0.932081117589476,,,,,Europe/Madrid
17825,PA01178,"San Nicolo",,41.6086577875732,-0.884063743059588,,,,,Europe/Madrid
17826,PA01179,"Av. Isla De Murano / San Nicolo",,41.6096527109693,-0.884365608918405,,,,,Europe/Madrid
17828,PA01182,"P. De Los Olvidados / Atraco A Las Tres",,41.6227403142846,-0.918865240412283,,,,,Europe/Madrid
17829,PA01183,"Belle Epoque / Tranvía",,41.6242517808012,-0.919250936136912,,,,,Europe/Madrid
17830,PA01184,"Cantando Bajo La Lluvia / Tranvía",,41.6250085146277,-0.935742718166168,,,,,Europe/Madrid
17831,PA01185,"Martín Díez De Aux Fte. Centro Ocupacional",,41.6263366558989,-0.940939674771291,,,,,Europe/Madrid
17832,PA01186,"Ermesinda De Aragón N.º 4",,41.6315833368003,-0.941936338274823,,,,,Europe/Madrid
17833,PA01187,"Ermesinda De Aragón N.º 10",,41.628062500295,-0.942385332166429,,,,,Europe/Madrid
17834,PA01188,"Martín Díez De Aux / Centro Ocupacional",,41.6261746660712,-0.940810954040101,,,,,Europe/Madrid
17835,PA01189,"Un Americano En París N.º 67",,41.6242649462134,-0.936673600806161,,,,,Europe/Madrid
17836,PA01190,"Av. De La Ilustración / Gasolinera",,41.6272566231475,-0.923266277683913,,,,,Europe/Madrid
17837,PA01191,"Av. De La Ilustración / Glorieta Santiago Loren",,41.6272507913313,-0.922824245239762,,,,,Europe/Madrid
17838,PA01192,"Manhattan",,41.622991976072,-0.926416994617076,,,,,Europe/Madrid
17839,PA01193,"La Ventana Indiscreta N.º 34",,41.6184921920107,-0.920476129191394,,,,,Europe/Madrid
17840,PA01194,"La Atalanta / Mi Tío",,41.6158074090773,-0.921922221815355,,,,,Europe/Madrid
17842,PA01196,"Doctor Mabuse",,41.6189397058148,-0.92416150368462,,,,,Europe/Madrid
17844,PA01198,"Embarcadero / Vía Ibérica",,41.629498500297,-0.907405004012775,,,,,Europe/Madrid
17846,PA01200,"Ibón",,41.6319759552438,-0.940498655215445,,,,,Europe/Madrid
17847,PA01201,"Ermesinda De Aragón / De La Mesta",,41.6299787777025,-0.942881664825957,,,,,Europe/Madrid
17849,PA01203,"Bernardo Ramazzini / Maz",,41.6852279869027,-0.870432439422461,,,,,Europe/Madrid
17850,PA01204,"Francisco Rallo Lahoz / Vía Hispanidad",,41.6553776198698,-0.921436074833979,,,,,Europe/Madrid
17851,PA01205,"Carnaval De Venecia",,41.6176945212593,-0.873143034902857,,,,,Europe/Madrid
17852,PA01206,"Carlo Scarpa",,41.6175426241293,-0.871372550261846,,,,,Europe/Madrid
17853,PA01207,"Av. Puente De Los Suspiros / El Campanile",,41.6182846675949,-0.87322433275512,,,,,Europe/Madrid
17854,PA01208,"Marqués De La Cadena / Puente De La Unión",,41.6546773190547,-0.861281860636324,,,,,Europe/Madrid
17856,PA01210,"Av. Isla De Murano / Jardines Reales",,41.6102717858745,-0.887355931675253,,,,,Europe/Madrid
17859,PA01213,"Pablo Ruiz Picasso / G.Gómez Avellaneda",,41.672627231996,-0.891091314182146,,,,,Europe/Madrid
17860,PA01214,"Diputados / Aljafería",,41.6568840685451,-0.895486220408329,,,,,Europe/Madrid
17861,PA01215,"Patio De Los Naranjos / Faja De Las Flores",,41.621686091344,-0.947165023768935,,,,,Europe/Madrid
17862,PA01216,"Patio De Los Naranjos / Peña Telera",,41.623031405386,-0.949497507316435,,,,,Europe/Madrid
17863,PA01217,"Av. Canal De Izas",,41.6221742568835,-0.95194323879195,,,,,Europe/Madrid
17864,PA01218,"P. De Los Arqueros",,41.6212862172094,-0.953266988184393,,,,,Europe/Madrid
17865,PA01219,"Refugio De Góriz / Mesa De Los Tres Reyes",,41.6237196549626,-0.954080587986364,,,,,Europe/Madrid
17866,PA01220,"Patio De Los Naranjos / Bosque De La Trapa",,41.6255051488514,-0.954826964819734,,,,,Europe/Madrid
17867,PA01221,"Patio De Los Naranjos / A. De Medinaceli",,41.6276189711005,-0.959446835171822,,,,,Europe/Madrid
17869,PA01223,"Av. Los Cañones De Zaragoza",,41.6243389119744,-0.957704221147527,,,,,Europe/Madrid
17870,PA01224,"Valle De Broto / Intercambiador",,41.666322334204,-0.886806166869139,,,,,Europe/Madrid
17871,PA01225,"Clara Campoamor / Centro Comercial",,41.6687665030209,-0.889521655032573,,,,,Europe/Madrid
17872,PA01226,"Prolongacion Jorge Guillen",,41.6678270121652,-0.888192494602576,,,,,Europe/Madrid
17874,PA01228,"P. De La Constitución / Patio De La Infanta",,41.6473043253869,-0.884467768672849,,,,,Europe/Madrid
17875,PA01229,"Desayuno Con Diamantes N.º 35",,41.6207184538292,-0.930884315781217,,,,,Europe/Madrid
17876,PA01230,"Desayuno Con Diamantes N.º 19",,41.622489715818,-0.929978811605607,,,,,Europe/Madrid
17877,PA01231,"La Lista De Schindler",,41.6259902992047,-0.932195284546092,,,,,Europe/Madrid
17878,PA01232,"Tomas De Anzano / Colegio",,41.627574172794,-0.931543863292253,,,,,Europe/Madrid
17879,PA01233,"La Isla Del Tesoro N.º 51",,41.6252898389124,-0.930615668855906,,,,,Europe/Madrid
17880,PA01234,"El Tambor De Hojalata / Colegio",,41.6152796695377,-0.925413239221821,,,,,Europe/Madrid
17881,PA01235,"El Acorazado Potemkin N.º 27",,41.6171778013481,-0.927757531649255,,,,,Europe/Madrid
17882,PA01236,"Plaza Europa",,41.6588159995443,-0.891843220062929,,,,,Europe/Madrid
17890,PA01245,"P. Echegaray Y Caballero N.º 80 / Once",,41.6579199143999,-0.883837145169598,,,,,Europe/Madrid
17891,PA01246,"P. Echegaray Y Caballero / Puente De Piedra",,41.6560489699551,-0.875586625004014,,,,,Europe/Madrid
17892,PA01247,"Pso. Echegaray Y Caballero / Puente De Santiago",,41.6578276774172,-0.880892666324108,,,,,Europe/Madrid
17893,PA01248,"P. De La Mina N.º 15",,41.6486035574663,-0.877218227005905,,,,,Europe/Madrid
17894,PA01249,"P. Pamplona N.º 15 / Puerta Del Carmen",,41.649126956095,-0.887404993914338,,,,,Europe/Madrid
17897,PA03001,"P. Pamplona / Almagro",,41.6489204145369,-0.887274047037583,,,,,Europe/Madrid
17899,PA03003,"Av. José Atarés / Tv Aragón",,41.661200827668,-0.883463719779139,,,,,Europe/Madrid
17904,PA03008,"Av. César Augusto N.º 3 / Puerta Del Carmen",,41.6503256108173,-0.887208356879555,,,,,Europe/Madrid
17905,PA03009,"Marqués De La Cadena / Campo De Fútbol",,41.6653704184213,-0.867990440839043,,,,,Europe/Madrid
17906,PA03010,"Av. Salvador Allende / Juslibol",,41.6712276257897,-0.876769167428013,,,,,Europe/Madrid
17907,PA03011,"Pablo Ruiz Picasso N.º 8",,41.6732032532949,-0.884993396913718,,,,,Europe/Madrid
17908,PA03012,"Av. Salvador Allende N.º 33",,41.6706383856589,-0.877017758612371,,,,,Europe/Madrid
17909,PA03013,"Marqués De La Cadena / C.D.M. La Jota",,41.657780322498,-0.861194628390393,,,,,Europe/Madrid
17911,PA03015,"Av. Compromiso De Caspe N.º 26",,41.6457862757041,-0.868096686516114,,,,,Europe/Madrid
17912,PA03016,"Doctor Iranzo N.º 15 / Belchite",,41.6428264139958,-0.86483991494175,,,,,Europe/Madrid
17913,PA03017,"Miguel Servet N.º 174",,41.6387879803021,-0.865506468340826,,,,,Europe/Madrid
17914,PA03018,"Av. Cesáreo Alierta / 3er Cinturón",,41.6351238500312,-0.863643305845889,,,,,Europe/Madrid
17915,PA03019,"María De Aragón / Tomás Higuera",,41.6433064931174,-0.862373920098372,,,,,Europe/Madrid
17916,PA03020,"Salvador Minguijón / Amistad",,41.6470427527408,-0.861676185903976,,,,,Europe/Madrid
17917,PA03021,"Marqués De La Cadena / C.D.M. La Jota",,41.6578747916096,-0.860880493014896,,,,,Europe/Madrid
17918,PA03022,"Marqués De La Cadena N.º 40",,41.6606773035068,-0.863785719695403,,,,,Europe/Madrid
17919,PA03023,"Av. San Juan De La Peña N.º 37",,41.6652831544341,-0.871940261479269,,,,,Europe/Madrid
17922,PA03026,"Jorge Cocci Fte N.º 1",,41.6487393463622,-0.8707831650183,,,,,Europe/Madrid
17923,PA03027,"Camino De Las Torres N.º 24",,41.6454972510928,-0.876504796738835,,,,,Europe/Madrid
17924,PA03028,"Av. Cesáreo Alierta N.º 36",,41.6435393584667,-0.876796680129231,,,,,Europe/Madrid
17925,PA03029,"Av. De San José N.º 69",,41.6415786747485,-0.873230670169142,,,,,Europe/Madrid
17926,PA03030,"Av. De San José N.º 7",,41.645467115874,-0.872342669844192,,,,,Europe/Madrid
17927,PA03031,"Jorge Cocci N.º 3",,41.6487903113338,-0.870604721877741,,,,,Europe/Madrid
17928,PA03032,"Asalto / Edificio Trovador",,41.6511849767912,-0.869815763452301,,,,,Europe/Madrid
17929,PA03033,"Marqués De La Cadena / Chimenea",,41.6650844892497,-0.867995371232456,,,,,Europe/Madrid
17931,PA03035,"Plaza Europa",,41.6593741938172,-0.892963581721311,,,,,Europe/Madrid
17932,PA03036,"Av. De Madrid / Aljafería",,41.6559369705915,-0.894870286629778,,,,,Europe/Madrid
17933,PA03037,"Av. De Madrid N.º 58",,41.6535986629989,-0.90410129165781,,,,,Europe/Madrid
17934,PA03038,"P. Calanda N.º 50",,41.6507555776443,-0.903227055772374,,,,,Europe/Madrid
17936,PA03040,"Tomás Bretón / Av. De Valencia",,41.6457351727883,-0.897921258521043,,,,,Europe/Madrid
17938,PA03042,"Rioja / Parque Castillo Palomar",,41.6543938283559,-0.909806678850673,,,,,Europe/Madrid
17940,PA03044,"Vía Hispanidad / Brea De Aragón",,41.6519986551747,-0.919249551224484,,,,,Europe/Madrid
17941,PA03045,"Vía Hispanidad / Miguel Labordeta",,41.6545651029998,-0.92025101381021,,,,,Europe/Madrid
17943,PA03047,"Rioja N.º 22",,41.6539577873814,-0.909747426943352,,,,,Europe/Madrid
17944,PA03048,"Vía Univérsitas / Parque De Delicias",,41.6485465652562,-0.908818845495832,,,,,Europe/Madrid
17945,PA03049,"Duquesa Villahermosa / Parque De Delicias",,41.6455178225539,-0.911009382898538,,,,,Europe/Madrid
17946,PA03050,"Vía Hispanidad N.º 59",,41.6416778663088,-0.91519561079108,,,,,Europe/Madrid
17947,PA03051,"Vía Hispanidad N.º 56",,41.6418289683174,-0.914944677749164,,,,,Europe/Madrid
17948,PA03052,"Duquesa Villahermosa N.º 129",,41.6453887149113,-0.910579535668206,,,,,Europe/Madrid
17949,PA03053,"Vía Univérsitas N.º 44",,41.6485586696854,-0.908642669849652,,,,,Europe/Madrid
17951,PA03055,"Pablo Ruiz Picasso N.º 60",,41.6724874211751,-0.894210153926745,,,,,Europe/Madrid
17952,PA03056,"Pablo Ruiz Picasso N.º 9",,41.6729220161023,-0.884878354946574,,,,,Europe/Madrid
17954,PA03058,"Pablo Ruiz Picasso Fte. Policía",,41.6720293967353,-0.895181625280254,,,,,Europe/Madrid
17955,PA03059,"Valle De Broto / Kasán",,41.6666006504274,-0.882824824897387,,,,,Europe/Madrid
17956,PA03060,"María Zambrano / León Felipe",,41.6679859794046,-0.887366771246719,,,,,Europe/Madrid
17958,PA03062,"G. Gómez Avellaneda N.º 47",,41.6702002263868,-0.890708318582594,,,,,Europe/Madrid
17959,PA03063,"G. Gómez Avellaneda / Rosalía De Castro",,41.6677776707114,-0.888672501167355,,,,,Europe/Madrid
17960,PA03064,"Valle De Broto / Kasán",,41.6658851547958,-0.884358135569136,,,,,Europe/Madrid
17967,PA03071,"Av. De Madrid / Aljafería",,41.6555728080805,-0.895794197267841,,,,,Europe/Madrid
17969,PA03073,"Estación Delicias / Acceso Llegadas",,41.6595868319282,-0.913961908738366,,,,,Europe/Madrid
17971,PA03075,"Plaza Europa",,41.6590281761331,-0.8917073389944,,,,,Europe/Madrid
17972,PA03076,"María Zambrano N.º 32 / Centro Comercial",,41.6712474644017,-0.889370642560572,,,,,Europe/Madrid
17973,PA03077,"Avenida Pablo Gargallo / Berna",,41.6624685813297,-0.906075058455127,,,,,Europe/Madrid
17977,PA03501,"Valle De Broto N.º 9",,41.6664478133084,-0.872700573494911,,,,,Europe/Madrid
17978,PA03502,"Av. San Juan De La Peña N.º 94",,41.6679780893554,-0.871317175483007,,,,,Europe/Madrid
17979,PA03503,"Av. San Juan De La Peña / Cno. Los Molinos",,41.6729638068253,-0.871129348062444,,,,,Europe/Madrid
17980,PA03504,"Av. San Juan De La Peña / Av. Alcalde Caballero",,41.6769909853084,-0.870987790238724,,,,,Europe/Madrid
17983,PA03507,"Av.  Las Majas De Goya N.º 15",,41.6866936143394,-0.876336170308776,,,,,Europe/Madrid
17984,PA03508,"Av. Academia General Militar N.º 7",,41.6787816677824,-0.871228601608624,,,,,Europe/Madrid
17985,PA03509,"Av. San Juan De La Peña N.º 181",,41.6765094924403,-0.871290858401063,,,,,Europe/Madrid
17986,PA03510,"Av. San Juan De La Peña / J.L. Lacruz Berdejo",,41.6723371843391,-0.871469473926409,,,,,Europe/Madrid
17987,PA03511,"Av. San Juan De La Peña / C.S. Picarral",,41.6678811638829,-0.871652220873513,,,,,Europe/Madrid
17988,PA03512,"Valle De Broto / Av. San Juan De La Peña",,41.6666503070832,-0.872466686128976,,,,,Europe/Madrid
17989,PA03513,"Av. De Cataluña N.º 98",,41.662772327084,-0.863368192203109,,,,,Europe/Madrid
17990,PA03514,"Av. De Cataluña N.º 152 / Cme Grande Covián",,41.6643926513337,-0.859413831430419,,,,,Europe/Madrid
17991,PA03515,"Av. De Cataluña / Gasolinera",,41.6680425188668,-0.850703157297151,,,,,Europe/Madrid
17992,PA03516,"Av. De Cataluña / Río Martín",,41.6697734436389,-0.846543117679804,,,,,Europe/Madrid
17993,PA03517,"Av. Santa Isabel N.º 20 / Av. De La Industria",,41.6695895423949,-0.839086071587284,,,,,Europe/Madrid
17994,PA03518,"Av. Santa Isabel N.º 82 / Plaza",,41.666965136561,-0.831919258739226,,,,,Europe/Madrid
17995,PA03519,"Av. Real Zaragoza Fte. N.º 63",,41.6667955639746,-0.824179733383631,,,,,Europe/Madrid
17996,PA03520,"Av. Santa Isabel N.º 97 / Plaza",,41.6671257907038,-0.832284913974735,,,,,Europe/Madrid
17997,PA03521,"Av. Santa Isabel N.º 27",,41.6688723248749,-0.837670836435947,,,,,Europe/Madrid
17998,PA03522,"Av. De Cataluña N.º 289 / Castillo Peracense",,41.6699790719315,-0.846540185846006,,,,,Europe/Madrid
17999,PA03523,"Av. De Cataluña N.º 225 / Gasolinera",,41.6679137266399,-0.851627205997445,,,,,Europe/Madrid
18000,PA03524,"Av. Puente Del Pilar N.º 3 / Puente De Hierro",,41.6570675761394,-0.869945514244578,,,,,Europe/Madrid
18001,PA03525,"Av. Puente Del Pilar N.º 8 / Puente De Hierro",,41.6570826767858,-0.869603390115935,,,,,Europe/Madrid
18002,PA03526,"Camino Del Pilón / Pascual Lorenz",,41.6585137259475,-0.929384662993111,,,,,Europe/Madrid
18003,PA03527,"Camino Del Pilón / Lagos De Coronas",,41.6587609097444,-0.932501698696275,,,,,Europe/Madrid
18005,PA03529,"Lagos De Coronas N.º 14 / Ibón De Astún",,41.6572284970437,-0.933683292695563,,,,,Europe/Madrid
18006,PA03530,"Lagos De Coronas / Ibón De Escalar",,41.6523579986399,-0.933787858742698,,,,,Europe/Madrid
18007,PA03531,"Alfred Nobel N.º 5",,41.6517225153821,-0.921223196146404,,,,,Europe/Madrid
18008,PA03532,"Antonio Leyva N.º 68 / Colegio",,41.6515758577755,-0.927257293746519,,,,,Europe/Madrid
18011,PA03535,"Tulipán N.º 79",,41.6382022972039,-0.933551808197494,,,,,Europe/Madrid
18013,PA03537,"Aldebarán N.º 60",,41.6416546535521,-0.934664699641615,,,,,Europe/Madrid
18015,PA03539,"Vía Láctea / Torre Pajaritos",,41.6376703837555,-0.928098768028261,,,,,Europe/Madrid
18018,PA03542,"Marqués De La Cadena / Av. De La Jota",,41.6601600726216,-0.863761944256617,,,,,Europe/Madrid
18043,PA08000,"Instalaciones Az",,41.632616612485,-0.857922143742524,,,,,Europe/Madrid
18803,PA01222,"Catedral De Santiago",,41.6282000737548,-0.964206699090512,,,,,Europe/Madrid
18908,PA01252,"Av. José Atarés / Clara Campoamor",,41.6672014924755,-0.89511842294621,,,,,Europe/Madrid
18909,PA01253,"Av. José Atarés / Parque Del Respeto",,41.6710816143743,-0.896836968953707,,,,,Europe/Madrid
18912,PA01254,"Av. José Atarés / Ciudad De La Justicia",,41.670211034037,-0.897043565890093,,,,,Europe/Madrid
18913,PA01255,"Av. José Atarés / Juzgados",,41.6677691254086,-0.895971404280482,,,,,Europe/Madrid
18924,PA01256,"Av.Tiziano / Paolo Veronese",,41.6169557426534,-0.875712311670894,,,,,Europe/Madrid
18925,PA01257,"Av. Policía Local / Léon De Oro",,41.6161548323402,-0.876081829019972,,,,,Europe/Madrid
18932,PA01263,"P. De La Mina / Colegio",,41.6471634881054,-0.878500617257447,,,,,Europe/Madrid
18933,PA01258,"P. De La Mina / Centro De Mayores",,41.6488973434542,-0.87671412975432,,,,,Europe/Madrid
18989,PA01260,"Estación Miraflores",,41.6344619527998,-0.868916679002763,,,,,Europe/Madrid
18991,PA01259,"Camino De Cabaldós / Parque La Granja",,41.6368964011612,-0.869104495830569,,,,,Europe/Madrid
19106,PA01265,"Valle De Broto / Valle De Oza",,41.666471753883,-0.875405767604902,,,,,Europe/Madrid
19109,PA01267,"Av. Canal De Izas / Av De Los Cañones",,41.6221387610519,-0.951732024660265,,,,,Europe/Madrid
19110,PA01268,"Peine Del Viento / Peña Telera",,41.6235623614158,-0.948951640291421,,,,,Europe/Madrid
19111,PA01269,"La Diligencia N.º 56",,41.6231771780858,-0.936102572640808,,,,,Europe/Madrid
19172,PA01270,"Av. Cañones De Zaragoza / Refugio De Góriz",,41.6230987565366,-0.955023250363179,,,,,Europe/Madrid
19197,PA01271,"Av. Casablanca / Parque El Libro De La Selva",,41.6215860880168,-0.935674892425931,,,,,Europe/Madrid
19198,PA01272,"Peine Del Viento / Faja De Las Flores",,41.6232478148177,-0.947446831131376,,,,,Europe/Madrid
19201,PA01273,"Av. 21 De Junio De 2009 / Av Patio De Los Naranjos",,41.6261498134782,-0.957317357658213,,,,,Europe/Madrid
19218,PA01274,"Hernán Cortés N.º 10",,41.6491996187542,-0.888682243589725,,,,,Europe/Madrid
19221,PA01275,"Melilla",,41.6322655200292,-0.875686229851755,,,,,Europe/Madrid
19222,PA01276,"Diputados / Aljafería",,41.6559958094043,-0.895450439818304,,,,,Europe/Madrid
19313,PA01277,"Pso. De Los Olvidados 3",,41.622478889402,-0.918483975691397,,,,,Europe/Madrid
19315,PA01278,"Plaza Mozart / Parque De La Esperanza",,41.6617380385621,-0.865184595222233,,,,,Europe/Madrid
19318,PA01280,"Catedral De Santiago / Fuente De Neptuno",,41.6242728576376,-0.967415761890641,,,,,Europe/Madrid
19319,PA01281,"Fuente De Neptuno / Lonja De La Seda",,41.621289884354,-0.961637178730478,,,,,Europe/Madrid
19328,PA01282,"Zaragoza / Camino Viejo Alfocéa",,41.6877450130229,-0.889975974515528,,,,,Europe/Madrid
19329,PA09951,"Av. De Navarra (C.M.E Inocencio Jimenez / Rioja)",,41.6557588668114,-0.909826587078744,,,,,Europe/Madrid
19331,PA01284,"Antonio Leyva / C.S Oliver",,41.651484484872,-0.930169878193688,,,,,Europe/Madrid
19335,PA01285,"Asalto / Centro De Historias",,41.6507702617395,-0.870079189231812,,,,,Europe/Madrid
19336,PA01286,"Av. Manuel Rodríguez Ayuso / Supermercado",,41.6486018335623,-0.920586408241086,,,,,Europe/Madrid
19371,PA01287,"Av. Del Cierzo / Av: Cañones De Zaragoza",,41.6240478161084,-0.957536528809744,,,,,Europe/Madrid
19372,PA01288,"Valle De Oza 2",,41.6649669156053,-0.875069681707296,,,,,Europe/Madrid
19373,PA01289,"Valle De Zuriza / Centro Cívico",,41.6608849422823,-0.87112032893806,,,,,Europe/Madrid
19374,PA01290,"Los Siete Samuráis / Colegio",,41.6265900468639,-0.933281310389318,,,,,Europe/Madrid
19385,PA01291,"P. De Los Plátanos Nº.78",,41.6038659423951,-0.823710313524488,,,,,Europe/Madrid
19387,PA01292,"Cesáreo Alierta Nº. 83",,41.6393391302597,-0.871294124418555,,,,,Europe/Madrid
19388,PA01293,"Coso N.º 80",,41.6513184639,-0.878615672145337,,,,,Europe/Madrid
19408,PA01294,"Ibón De Astún / Ibón De Catieras",,41.6570109478031,-0.934637221983093,,,,,Europe/Madrid
19409,PA01295,"Lagos De Barbarisa / Ibón De Catieras",,41.6584436842318,-0.936046497984566,,,,,Europe/Madrid
19410,PA01296,"Enriqueta Castejón 20",,41.6556602532504,-0.861509162356188,,,,,Europe/Madrid
19411,PA01297,"Cosuenda / Paseo De Longares",,41.6564055966602,-0.863252718537254,,,,,Europe/Madrid
19413,PA01298,"Av. José Atarés / Cdm Sxxi",,41.6751399575745,-0.898077277161177,,,,,Europe/Madrid
19414,PA01299,"Av. José Atarés / Noria Siria",,41.6748331255586,-0.898348757506171,,,,,Europe/Madrid
19415,PA01300,"Café Florián / Vaporetto",,41.622027625946,-0.872798604570343,,,,,Europe/Madrid
19421,PA01301,"Av. De Los Estudiantes / C. Pepe Garcés",,41.6714272636879,-0.828630923747463,,,,,Europe/Madrid
19423,PA01302,"Av. De Los Estudiantes / Colegio",,41.6698725062376,-0.823341607562399,,,,,Europe/Madrid
19424,PA01304,"Av. De Los Estudiantes Fte. Colegio",,41.6701680332568,-0.823864638321067,,,,,Europe/Madrid
19425,PA01305,"Av. Estudiantes Fte C. Pepe Garcés",,41.6717358064484,-0.828916579007958,,,,,Europe/Madrid
19430,PA01303,"Valle De Broto / Intercambiador",,41.6664543120935,-0.886749028760108,,,,,Europe/Madrid
19431,PA8130,"Ramón Y Cajal / Camón Aznar",,41.6525158457164,-0.886390374644633,,,,,Europe/Madrid
19432,PA08131,"Conde Aranda N.º 10",,41.6548004678843,-0.886427680506121,,,,,Europe/Madrid
19433,PA08132,"Madre Rafols N.º 13",,41.653322832056,-0.889388322434232,,,,,Europe/Madrid
19434,PA08133,"Madre Rafols / Ramón Y Cajal",,41.6523082178604,-0.886926842574058,,,,,Europe/Madrid
19441,PA01306,"Orquídea",,41.6435341000998,-0.9283795949291,,,,,Europe/Madrid
19442,PA01307,"Av. Navarra Nº. 94",,41.657353938189,-0.913697182764919,,,,,Europe/Madrid
19443,PA01308,"Paseo Echegaray / C.D.M. Tenerías",,41.6539491079504,-0.870689302263378,,,,,Europe/Madrid
19444,PA01309,"Paseo Echegaray / Jerónimo Vicens",,41.6523087532138,-0.865677594712567,,,,,Europe/Madrid
19445,PA01310,"Paseo De La Ribera / Azud Del Ebro",,41.6527997617607,-0.856568812885912,,,,,Europe/Madrid
19446,PA01311,"Paseo De La Ribera / Balbino Orensanz",,41.6538368797575,-0.860420465036421,,,,,Europe/Madrid
19447,PA01312,"Paseo De La Ribera / Paniza",,41.6552737866615,-0.866604297928373,,,,,Europe/Madrid
19448,PA01313,"Paseo De La Ribera / Puente Del Pilar",,41.656853946435,-0.870661139068637,,,,,Europe/Madrid
19449,PA01314,"Av. José Atarés / V. Broto",,41.6619148059873,-0.886933430630186,,,,,Europe/Madrid
19460,PA01315,"Biel / Dalia",,41.642263299784,-0.925447940472616,,,,,Europe/Madrid
19461,PA01316,"Hortensia / Biel",,41.6409964833584,-0.925722866896963,,,,,Europe/Madrid
19462,PA01317,"Hortensia",,41.6421460401325,-0.928912013419161,,,,,Europe/Madrid
19463,PA01318,"Dalia / Biel",,41.6427263229905,-0.924557447078677,,,,,Europe/Madrid
19464,PA01319,"Jarque Moncayo / Escuela Pignatelli",,41.6432855543753,-0.922653078675984,,,,,Europe/Madrid
101,0101,Avenida de la Academia,,41.68721736857768,-0.8708043196472608,,,0,,Europe/Madrid
201,0201,Parque Goya,,41.68684900398003,-0.878704035935457,,,0,,Europe/Madrid
301,0301,Juslibol,,41.686910701397345,-0.8846278141287558,,,0,,Europe/Madrid
401,0401,Campus Río Ebro,,41.68347001151971,-0.8897943413131593,,,0,,Europe/Madrid
501,0501,Margarita Xirgu,,41.67758578772829,-0.8908045204522034,,,0,,Europe/Madrid
601,0601,Legaz Lacambra,,41.674874743155314,-0.8908393900410567,,,0,,Europe/Madrid
701,0701,Clara Campoamor,,41.669845690120546,-0.8906840108247296,,,0,,Europe/Madrid
801,0801,Rosalía de Castro,,41.66646119261993,-0.8873440573059242,,,0,,Europe/Madrid
901,0901,Martínez Soria,,41.66250597862831,-0.8846435357078465,,,0,,Europe/Madrid
1001,1001,La Chimenea,,41.661174558700246,-0.8828475648052913,,,0,,Europe/Madrid
1101,1101,Plaza del Pilar - Murallas,,41.65727632462157,-0.8821748834915281,,,0,,Europe/Madrid
1201,1201,César Augusto,,41.655192498945446,-0.8840714551015636,,,0,,Europe/Madrid
1301,1301,Plaza España,,41.65139852916328,-0.8815944840350631,,,0,,Europe/Madrid
1311,1311,Plaza Aragón,,41.647957954594006,-0.8852391476851216,,,0,,Europe/Madrid
1401,1401,Gran Vía,,41.64650087942773,-0.8871558438886694,,,0,,Europe/Madrid
1501,1501,Fernando El Católico - Goya,,41.64386047362514,-0.892257594225223,,,0,,Europe/Madrid
1601,1601,Plaza San Francisco,,41.64087623158149,-0.8950562849629533,,,0,,Europe/Madrid
1701,1701,Emperador Carlos V,,41.63801542715126,-0.8976905835811019,,,0,,Europe/Madrid
1801,1801,Romareda,,41.635679983119964,-0.9006698186054948,,,0,,Europe/Madrid
1901,1901,Casablanca,,41.63135203851997,-0.9055989921154052,,,0,,Europe/Madrid
2001,2001,Argualas,,41.626386960117244,-0.9096155388996879,,,0,,Europe/Madrid
2101,2101,Paseo de Los Olvidados,,41.62256776961734,-0.9188084399278142,,,0,,Europe/Madrid
2301,2301,Los Pájaros,,41.621286854442396,-0.9236692178629906,,,0,,Europe/Madrid
2401,2401,Cantando bajo la lluvia,,41.62357289972804,-0.930185492587926,,,0,,Europe/Madrid
2501,2501,Mago de Oz,,41.62497046613963,-0.9363805520582271,,,0,,Europe/Madrid
102,0102,Avenida de la Academia,,41.687216424958216,-0.8707787699110215,,,0,,Europe/Madrid
202,0202,Parque Goya,,41.68673171405406,-0.8787101785601839,,,0,,Europe/Madrid
302,0302,Juslibol,,41.68681362815634,-0.884626111810379,,,0,,Europe/Madrid
402,0402,Campus Río Ebro,,41.68347156246127,-0.8896794932980542,,,0,,Europe/Madrid
502,0502,García Abril,,41.677454336449784,-0.8892311116916783,,,0,,Europe/Madrid
602,0602,Adolfo Aznar,,41.67486219132052,-0.8892597165910525,,,0,,Europe/Madrid
702,0702,Pablo Neruda,,41.66963057552978,-0.8888424674967174,,,0,,Europe/Madrid
802,0802,León Felipe,,41.66738029678503,-0.8866449039219496,,,0,,Europe/Madrid
902,0902,María Montessori,,41.6630947465636,-0.883606049577144,,,0,,Europe/Madrid
1002,1002,La chimenea,,41.66127068212084,-0.8828393320565395,,,0,,Europe/Madrid
1102,1102,Plaza del Pilar - Murallas,,41.657231175221874,-0.8820733181164175,,,0,,Europe/Madrid
1202,1202,César Augusto,,41.65512143681619,-0.8838796425078432,,,0,,Europe/Madrid
1302,1302,Plaza España,,41.651356910186045,-0.8815219475629344,,,0,,Europe/Madrid
1312,1312,Plaza Aragón,,41.64791411735438,-0.8851639361683451,,,0,,Europe/Madrid
1402,1402,Gran Vía,,41.64644125036037,-0.887116640612462,,,0,,Europe/Madrid
1502,1502,Fernando El Católico - Goya,,41.643818546585194,-0.8921749197012053,,,0,,Europe/Madrid
1602,1602,Plaza San Francisco,,41.64082196560242,-0.894952294641248,,,0,,Europe/Madrid
1702,1702,Emperador Carlos V,,41.637974230526126,-0.8976101497735137,,,0,,Europe/Madrid
1802,1802,Romareda,,41.63563254883058,-0.9006075797755985,,,0,,Europe/Madrid
1902,1902,Casablanca,,41.63133875106278,-0.9055700550541702,,,0,,Europe/Madrid
2002,2002,Argualas,,41.62636686487973,-0.9095584654201042,,,0,,Europe/Madrid
2102,2102,Paseo de Los Olvidados,,41.62248665915493,-0.9187275283019417,,,0,,Europe/Madrid
2322,2322,La ventana indiscreta,,41.62087472398119,-0.9241035084006295,,,0,,Europe/Madrid
2422,2422,Un americano en París,,41.623028141352,-0.9304910897725164,,,0,,Europe/Madrid
2502,2502,Mago de Oz,,41.624375626652835,-0.936450897480926,,,0,,Europe/Madrid
